[{"cuisine_type": "American Cuisine", "business_id": "Rc1lxc5lSKJYd162JHNMfQ", "name": "Bea", "address": "403 W 43rd St", "coordinates": {"latitude": 40.7591968, "longitude": -73.9923361}, "num_reviews": 2390, "rating": 4.0, "zipcode": "10036"}, {"cuisine_type": "American Cuisine", "business_id": "C-8mGN7lt5rIraO5n-15ug", "name": "The Smith", "address": "956 2nd Ave", "coordinates": {"latitude": 40.755165, "longitude": -73.967868}, "num_reviews": 2510, "rating": 4.0, "zipcode": "10022"}, {"cuisine_type": "American Cuisine", "business_id": "veq1Bl1DW3UWMekZJUsG1Q", "name": "Gramercy Tavern", "address": "42 E 20th St", "coordinates": {"latitude": 40.738527, "longitude": -73.988417}, "num_reviews": 2819, "rating": 4.5, "zipcode": "10003"}, {"cuisine_type": "American Cuisine", "business_id": "OgM6WwztLVavBQBmb_g5aw", "name": "Tara Rose", "address": "384 3rd Ave", "coordinates": {"latitude": 40.74176, "longitude": -73.98123}, "num_reviews": 69, "rating": 4.5, "zipcode": "10016"}, {"cuisine_type": "American Cuisine", "business_id": "SLD513aTy53UMk4wQP8Wcg", "name": "The Expat", "address": "64 Tiemann Pl", "coordinates": {"latitude": 40.81551, "longitude": -73.96008}, "num_reviews": 41, "rating": 4.5, "zipcode": "10027"}, {"cuisine_type": "American Cuisine", "business_id": "scjoZtbTQHi35xhAlUm2iQ", "name": "L'ADRESSE", "address": "1065 Ave Of The Americas", "coordinates": {"latitude": 40.75403, "longitude": -73.98539}, "num_reviews": 527, "rating": 4.0, "zipcode": "10018"}, {"cuisine_type": "American Cuisine", "business_id": "z7H9ApIGopnDnQaglnPTzg", "name": "Allora Ristorante", "address": "145 E 47th St", "coordinates": {"latitude": 40.75433, "longitude": -73.97277}, "num_reviews": 484, "rating": 4.5, "zipcode": "10017"}, {"cuisine_type": "American Cuisine", "business_id": "mHBhUxHgDGjsB1LJl4qW0w", "name": "Hillstone Restaurant", "address": "888 3rd Ave", "coordinates": {"latitude": 40.7582412110122, "longitude": -73.9688767764436}, "num_reviews": 1060, "rating": 4.0, "zipcode": "10022"}, {"cuisine_type": "American Cuisine", "business_id": "DRitJoNGTkHXZvH_YpLIAw", "name": "Marc Forgione", "address": "134 Reade St", "coordinates": {"latitude": 40.71647, "longitude": -74.0095599}, "num_reviews": 904, "rating": 4.5, "zipcode": "10013"}, {"cuisine_type": "American Cuisine", "business_id": "b3x1ORxAm9Wr5108EEe6mA", "name": "Sister Jane NYC", "address": "349 E 13th St", "coordinates": {"latitude": 40.73092, "longitude": -73.98335}, "num_reviews": 51, "rating": 4.5, "zipcode": "10003"}, {"cuisine_type": "American Cuisine", "business_id": "MbwsCB7echBlVwzfJ_9c9g", "name": "Old Tbilisi Garden", "address": "174 Bleecker St", "coordinates": {"latitude": 40.7287707, "longitude": -74.0008161}, "num_reviews": 404, "rating": 3.5, "zipcode": "10012"}, {"cuisine_type": "American Cuisine", "business_id": "k5NAz3-goMXKoUqPfOZ1Hw", "name": "The Smith", "address": "55 3rd Ave", "coordinates": {"latitude": 40.7310675, "longitude": -73.9886217}, "num_reviews": 1910, "rating": 3.5, "zipcode": "10003"}, {"cuisine_type": "American Cuisine", "business_id": "ePqKbqXFBCbwBaWiN2Jo9w", "name": "Ampersand", "address": "294 3rd Ave", "coordinates": {"latitude": 40.7386178790617, "longitude": -73.9834206895483}, "num_reviews": 204, "rating": 4.5, "zipcode": "10010"}, {"cuisine_type": "American Cuisine", "business_id": "zv29TbzPs9-rD5ql0qWw5A", "name": "The Shadmoor", "address": "1066 2nd Ave", "coordinates": {"latitude": 40.75866, "longitude": -73.9655499}, "num_reviews": 268, "rating": 4.5, "zipcode": "10022"}, {"cuisine_type": "American Cuisine", "business_id": "aJqjC4uAo6vhOpsVNCiMDA", "name": "Samba Kitchen", "address": "661 9th Ave", "coordinates": {"latitude": 40.76095, "longitude": -73.99115}, "num_reviews": 420, "rating": 4.5, "zipcode": "10036"}, {"cuisine_type": "American Cuisine", "business_id": "s3jou_L_LVYGkNHiuhjlew", "name": "Boucherie West Village", "address": "99 7th Ave S", "coordinates": {"latitude": 40.733063, "longitude": -74.0028772}, "num_reviews": 1291, "rating": 4.5, "zipcode": "10014"}, {"cuisine_type": "American Cuisine", "business_id": "Gc7OVEIs4HodL4hw9U3C3w", "name": "Copinette", "address": "891 1st Ave", "coordinates": {"latitude": 40.75407, "longitude": -73.96623}, "num_reviews": 96, "rating": 4.0, "zipcode": "10022"}, {"cuisine_type": "American Cuisine", "business_id": "XoDR_T-ZKYJtZgCocEDcyA", "name": "Print", "address": "653 11th Ave", "coordinates": {"latitude": 40.76452, "longitude": -73.99586}, "num_reviews": 886, "rating": 4.0, "zipcode": "10036"}, {"cuisine_type": "American Cuisine", "business_id": "_gzXNKarTxagBp6_PkmQKw", "name": "Gotham Bar and Grill", "address": "12 E 12th St", "coordinates": {"latitude": 40.734186, "longitude": -73.993696}, "num_reviews": 1567, "rating": 4.5, "zipcode": "10003"}, {"cuisine_type": "American Cuisine", "business_id": "OwV-MtDBC2H08rVcBqP2mA", "name": "Pio Pio 8", "address": "604 10th Ave", "coordinates": {"latitude": 40.760506289326, "longitude": -73.994564488901}, "num_reviews": 2286, "rating": 4.0, "zipcode": "10036"}, {"cuisine_type": "American Cuisine", "business_id": "1Ed-tb_0dBGrXfsYyehmvg", "name": "Momofuku Ssam Bar", "address": "207 2nd Ave", "coordinates": {"latitude": 40.73169, "longitude": -73.985846}, "num_reviews": 2403, "rating": 4.0, "zipcode": "10003"}, {"cuisine_type": "American Cuisine", "business_id": "BULuz2Xjd5Cj14akdUzm1g", "name": "Palais by Perfect Pie", "address": "134 E 61st St", "coordinates": {"latitude": 40.7635381452575, "longitude": -73.9676880463958}, "num_reviews": 4, "rating": 5.0, "zipcode": "10065"}, {"cuisine_type": "American Cuisine", "business_id": "fVbUVAiLiGgLA_nxBFxyww", "name": "Thursday Kitchen", "address": "424 E 9th St", "coordinates": {"latitude": 40.7275, "longitude": -73.9838}, "num_reviews": 1247, "rating": 4.5, "zipcode": "10009"}, {"cuisine_type": "American Cuisine", "business_id": "E3MkTTS4ZDjWV9YT5i6eUg", "name": "Houseman", "address": "508 Greenwich St", "coordinates": {"latitude": 40.7256288347129, "longitude": -74.0092368030346}, "num_reviews": 106, "rating": 4.0, "zipcode": "10013"}, {"cuisine_type": "American Cuisine", "business_id": "IOHaEgK1zDvUvB3SfKuGCw", "name": "Parker & Quinn", "address": "64 W 39th St", "coordinates": {"latitude": 40.7525862175813, "longitude": -73.9850713153442}, "num_reviews": 1290, "rating": 4.0, "zipcode": "10018"}, {"cuisine_type": "American Cuisine", "business_id": "0yMlU3xbdawYFXmjNc0dhw", "name": "The Harrow New York", "address": "720 10th Ave", "coordinates": {"latitude": 40.76419, "longitude": -73.99182}, "num_reviews": 187, "rating": 4.5, "zipcode": "10019"}, {"cuisine_type": "American Cuisine", "business_id": "0dDCDQz7DrKkSvu9h2hcQw", "name": "Chow House", "address": "181 Bleecker St", "coordinates": {"latitude": 40.72915, "longitude": -74.00072}, "num_reviews": 318, "rating": 4.5, "zipcode": "10012"}, {"cuisine_type": "American Cuisine", "business_id": "jvx3UEV66_Q2x5GnNHGmBQ", "name": "Dig Inn", "address": "856 8th Ave", "coordinates": {"latitude": 40.7631299, "longitude": -73.98527}, "num_reviews": 171, "rating": 4.0, "zipcode": "10019"}, {"cuisine_type": "American Cuisine", "business_id": "0EtZ1xhnXWp4-ysNVwItYA", "name": "Distilled", "address": "211 W Broadway", "coordinates": {"latitude": 40.7189994, "longitude": -74.0062975}, "num_reviews": 762, "rating": 4.0, "zipcode": "10013"}, {"cuisine_type": "American Cuisine", "business_id": "0roFOyJMaFvSD8Ceh89YRw", "name": "Home Base Bistro", "address": "416 3rd Ave", "coordinates": {"latitude": 40.7431, "longitude": -73.98032}, "num_reviews": 32, "rating": 4.5, "zipcode": "10016"}, {"cuisine_type": "American Cuisine", "business_id": "LT0yyLNM84EiJj9DL0rfHA", "name": "Hui Restaurant & Bar", "address": "314 E 70th St", "coordinates": {"latitude": 40.76701, "longitude": -73.95846}, "num_reviews": 119, "rating": 4.5, "zipcode": "10021"}, {"cuisine_type": "American Cuisine", "business_id": "AA9wpuJRhkSHUePAiv3otA", "name": "The Leroy House", "address": "430 Hudson St", "coordinates": {"latitude": 40.73063, "longitude": -74.00661}, "num_reviews": 57, "rating": 4.5, "zipcode": "10014"}, {"cuisine_type": "American Cuisine", "business_id": "sVG1whNWHhlbjP6p027YcA", "name": "Brindle Room", "address": "277 E 10th St", "coordinates": {"latitude": 40.72829, "longitude": -73.98271}, "num_reviews": 1002, "rating": 4.0, "zipcode": "10009"}, {"cuisine_type": "American Cuisine", "business_id": "Xu8H24NxJJxEE-9wGp_AMA", "name": "The Brazen Tavern", "address": "356 W 44th St", "coordinates": {"latitude": 40.7593269348145, "longitude": -73.9913101196289}, "num_reviews": 353, "rating": 4.5, "zipcode": "10036"}, {"cuisine_type": "American Cuisine", "business_id": "I6KHYESZdZQz0fnMaMyIpQ", "name": "Zusik", "address": "202 W14th St", "coordinates": {"latitude": 40.73864, "longitude": -74.00029}, "num_reviews": 84, "rating": 5.0, "zipcode": "10011"}, {"cuisine_type": "American Cuisine", "business_id": "VvsZAnEwU4c8Xkyrzx05Nw", "name": "Anytime", "address": "23 W 32nd St", "coordinates": {"latitude": 40.74779, "longitude": -73.98674}, "num_reviews": 948, "rating": 4.5, "zipcode": "10001"}, {"cuisine_type": "American Cuisine", "business_id": "-olla_BldF5Y84I9ezRNdA", "name": "Hourglass Tavern", "address": "373 W 46th St", "coordinates": {"latitude": 40.760952, "longitude": -73.9903269}, "num_reviews": 740, "rating": 4.0, "zipcode": "10036"}, {"cuisine_type": "American Cuisine", "business_id": "63xEppObiNqq_lVE5HGFvw", "name": "The Poni Room", "address": "316 Bowery", "coordinates": {"latitude": 40.72521, "longitude": -73.99247}, "num_reviews": 28, "rating": 4.0, "zipcode": "10012"}, {"cuisine_type": "American Cuisine", "business_id": "TzhAlljC_843JO7UDDUIaQ", "name": "The Tang - Upper West Side", "address": "920 Amsterdam Ave", "coordinates": {"latitude": 40.80006, "longitude": -73.96639}, "num_reviews": 135, "rating": 4.5, "zipcode": "10025"}, {"cuisine_type": "American Cuisine", "business_id": "L7_MTRZyYp_i-cnH2CU4zQ", "name": "Dudley's", "address": "85 Orchard St", "coordinates": {"latitude": 40.71798, "longitude": -73.99042}, "num_reviews": 664, "rating": 4.0, "zipcode": "10002"}, {"cuisine_type": "American Cuisine", "business_id": "8UwRTdW4OtSEI2rJ_p1zGg", "name": "Dimes", "address": "49 Canal St", "coordinates": {"latitude": 40.714973, "longitude": -73.991539}, "num_reviews": 247, "rating": 3.5, "zipcode": "10002"}, {"cuisine_type": "American Cuisine", "business_id": "cCesIqo-LQt0cRlZAnrAZQ", "name": "Friedman's", "address": "132 W 31st St", "coordinates": {"latitude": 40.748297, "longitude": -73.990649}, "num_reviews": 2283, "rating": 4.0, "zipcode": "10001"}, {"cuisine_type": "American Cuisine", "business_id": "GCAQmtRdNhqVit5KGJ46Qg", "name": "Estela", "address": "47 E Houston St", "coordinates": {"latitude": 40.724759, "longitude": -73.994728}, "num_reviews": 496, "rating": 4.0, "zipcode": "10012"}, {"cuisine_type": "American Cuisine", "business_id": "xTWpl9DgIkkr5B8h8_xUpA", "name": "Lokal 83 Mediterranean Kitchen", "address": "473 Columbus Ave", "coordinates": {"latitude": 40.7842696, "longitude": -73.9734941}, "num_reviews": 283, "rating": 4.5, "zipcode": "10024"}, {"cuisine_type": "American Cuisine", "business_id": "92m23CB9r9XrPFK7_7-SmQ", "name": "Flip'n Toss", "address": "82 Christopher St", "coordinates": {"latitude": 40.73341, "longitude": -74.00364}, "num_reviews": 149, "rating": 4.5, "zipcode": "10014"}, {"cuisine_type": "American Cuisine", "business_id": "Pr-q47vsmM4aoc2t_Sfk8w", "name": "Momofuku Noodle Bar", "address": "10 Columbus Cir", "coordinates": {"latitude": 40.76847, "longitude": -73.983092}, "num_reviews": 220, "rating": 4.0, "zipcode": "10019"}, {"cuisine_type": "American Cuisine", "business_id": "1raNn0l3I4H9PcAJce69Sw", "name": "Sojourn", "address": "244 E 79th St", "coordinates": {"latitude": 40.77343, "longitude": -73.95568}, "num_reviews": 602, "rating": 4.0, "zipcode": "10075"}, {"cuisine_type": "American Cuisine", "business_id": "MctQwL9Mp5X7DJk13VoERg", "name": "Westville Chelsea", "address": "246 W 18th St", "coordinates": {"latitude": 40.74175, "longitude": -74.00007}, "num_reviews": 1087, "rating": 4.0, "zipcode": "10011"}, {"cuisine_type": "American Cuisine", "business_id": "Xd_l7jtUAZZAAvK8-mI2Jw", "name": "The Smith", "address": "1150 Broadway", "coordinates": {"latitude": 40.74424, "longitude": -73.98878}, "num_reviews": 892, "rating": 4.0, "zipcode": "10010"}, {"cuisine_type": "American Cuisine", "business_id": "4TQMO6AaKSXHMbKvGAf-gg", "name": "LLama-San", "address": "359 6th Ave", "coordinates": {"latitude": 40.73225, "longitude": -74.00078}, "num_reviews": 18, "rating": 4.0, "zipcode": "10014"}, {"cuisine_type": "American Cuisine", "business_id": "u-MUL83NUy2gsbV80WZnAA", "name": "The Marshal", "address": "628 10th Ave", "coordinates": {"latitude": 40.76122, "longitude": -73.99396}, "num_reviews": 709, "rating": 4.0, "zipcode": "10036"}, {"cuisine_type": "American Cuisine", "business_id": "pcb8yK9_28uWz5CyokjwSg", "name": "Bangia", "address": "11 E 32nd St", "coordinates": {"latitude": 40.746854, "longitude": -73.9845201}, "num_reviews": 341, "rating": 4.0, "zipcode": "10016"}, {"cuisine_type": "American Cuisine", "business_id": "cSRzfprFfAnT1nAcQMgrDA", "name": "Fred's Restaurant", "address": "476 Amsterdam Ave", "coordinates": {"latitude": 40.7856233, "longitude": -73.9767067}, "num_reviews": 738, "rating": 4.0, "zipcode": "10024"}, {"cuisine_type": "American Cuisine", "business_id": "2VpurA2lb-q90nmALklNcA", "name": "Perry St", "address": "176 Perry St", "coordinates": {"latitude": 40.73442, "longitude": -74.00971}, "num_reviews": 927, "rating": 4.0, "zipcode": "10014"}, {"cuisine_type": "American Cuisine", "business_id": "_0WFGjXuenlBixOlbSlGeQ", "name": "Crown Shy", "address": "70 Pine St", "coordinates": {"latitude": 40.7063449, "longitude": -74.0076944}, "num_reviews": 156, "rating": 4.5, "zipcode": "10005"}, {"cuisine_type": "American Cuisine", "business_id": "P7yE1T1TDFIiYgLdEYR3Gw", "name": "Bill's Townhouse", "address": "57 E 54th St", "coordinates": {"latitude": 40.7602615356445, "longitude": -73.9729461669922}, "num_reviews": 96, "rating": 4.5, "zipcode": "10022"}, {"cuisine_type": "American Cuisine", "business_id": "51_f1MyuRFpEIpzb57YmEA", "name": "Hendriks", "address": "557 3rd Ave", "coordinates": {"latitude": 40.747395, "longitude": -73.97649}, "num_reviews": 361, "rating": 4.0, "zipcode": "10016"}, {"cuisine_type": "American Cuisine", "business_id": "fEig4z0y_qCMRLvW7HRuqA", "name": "Harding's", "address": "32 E 21st St", "coordinates": {"latitude": 40.7393229, "longitude": -73.9887163}, "num_reviews": 356, "rating": 4.0, "zipcode": "10010"}, {"cuisine_type": "American Cuisine", "business_id": "rZIMlQ76I0mXL8uNii_wVg", "name": "Atera", "address": "77 Worth St", "coordinates": {"latitude": 40.71694, "longitude": -74.0057}, "num_reviews": 251, "rating": 4.5, "zipcode": "10013"}, {"cuisine_type": "American Cuisine", "business_id": "JEuIdK9hzci9g_TuwfnZ_w", "name": "Society Cafe", "address": "52 W 13th St", "coordinates": {"latitude": 40.73624, "longitude": -73.99658}, "num_reviews": 144, "rating": 4.0, "zipcode": "10011"}, {"cuisine_type": "American Cuisine", "business_id": "uq5rHbGtBFwCwPkokIkKvQ", "name": "JoJo", "address": "160 E 64th St", "coordinates": {"latitude": 40.76506, "longitude": -73.96571}, "num_reviews": 127, "rating": 4.0, "zipcode": "10065"}, {"cuisine_type": "American Cuisine", "business_id": "RW-v9cm9rQZS9cSihuXfvw", "name": "Brandy Library", "address": "25 N Moore St", "coordinates": {"latitude": 40.720073, "longitude": -74.007227}, "num_reviews": 579, "rating": 4.0, "zipcode": "10013"}, {"cuisine_type": "American Cuisine", "business_id": "BQRfaq0U75B5EEblBZ2Aqg", "name": "The Ribbon", "address": "220 West 44th St", "coordinates": {"latitude": 40.7576, "longitude": -73.98693}, "num_reviews": 117, "rating": 4.0, "zipcode": "10036"}, {"cuisine_type": "American Cuisine", "business_id": "WqjqHMozyW42XLTtLnKGag", "name": "La Pulperia Hell's Kitchen", "address": "371 W 46th St", "coordinates": {"latitude": 40.7609037798437, "longitude": -73.9905203491259}, "num_reviews": 751, "rating": 4.5, "zipcode": "10036"}, {"cuisine_type": "American Cuisine", "business_id": "dpDbAqjIVWUOb1W-XBMKJw", "name": "Ardyn", "address": "33 W 8th St", "coordinates": {"latitude": 40.73306, "longitude": -73.99801}, "num_reviews": 53, "rating": 4.5, "zipcode": "10011"}, {"cuisine_type": "American Cuisine", "business_id": "-b3J-5K_beWyGxQ1Id7KQg", "name": "Jeepney", "address": "201 1st Ave", "coordinates": {"latitude": 40.730294, "longitude": -73.9835395}, "num_reviews": 1055, "rating": 4.0, "zipcode": "10003"}, {"cuisine_type": "American Cuisine", "business_id": "8luFI6XwdopipGzC4EzSOw", "name": "Intersect by Lexus - NYC", "address": "412 W 14th St", "coordinates": {"latitude": 40.74115, "longitude": -74.00624}, "num_reviews": 117, "rating": 4.5, "zipcode": "10014"}, {"cuisine_type": "American Cuisine", "business_id": "ddFY9PpygYagv7-jVduB2Q", "name": "Counter & Bodega", "address": "266 W 23rd St", "coordinates": {"latitude": 40.745, "longitude": -73.9982}, "num_reviews": 74, "rating": 4.5, "zipcode": "10011"}, {"cuisine_type": "American Cuisine", "business_id": "lUQR6cZlHHKXOksH5xOTqA", "name": "Joe Allen", "address": "326 W 46th St", "coordinates": {"latitude": 40.76005, "longitude": -73.98913}, "num_reviews": 386, "rating": 4.0, "zipcode": "10036"}, {"cuisine_type": "American Cuisine", "business_id": "dYqWosnE1UlJs4Wx-M_u_A", "name": "Oda House", "address": "76 Ave B", "coordinates": {"latitude": 40.7240282, "longitude": -73.9821844}, "num_reviews": 346, "rating": 4.0, "zipcode": "10009"}, {"cuisine_type": "American Cuisine", "business_id": "O5S9rhY63YPGiQeUcn7PKA", "name": "Cardoncello DiVino", "address": "43 W 27th St", "coordinates": {"latitude": 40.74519, "longitude": -73.98985}, "num_reviews": 81, "rating": 4.5, "zipcode": "10001"}, {"cuisine_type": "American Cuisine", "business_id": "yGQT6OZ-nNIhTKj32wRlmA", "name": "Bar Bolinas", "address": "455 Myrtle Ave", "coordinates": {"latitude": 40.693499, "longitude": -73.967389}, "num_reviews": 119, "rating": 4.0, "zipcode": "11205"}, {"cuisine_type": "American Cuisine", "business_id": "qm1J_dPA5IHij1oAnoZwHw", "name": "nonono", "address": "118 Madison Ave", "coordinates": {"latitude": 40.74545, "longitude": -73.98499}, "num_reviews": 529, "rating": 4.5, "zipcode": "10016"}, {"cuisine_type": "American Cuisine", "business_id": "zXCGF0XtqjOv1s4DUHOtqg", "name": "Hart's Restaurant", "address": "506 Franklin Ave", "coordinates": {"latitude": 40.681458, "longitude": -73.955893}, "num_reviews": 86, "rating": 4.5, "zipcode": "11238"}, {"cuisine_type": "American Cuisine", "business_id": "MyQV4i518ZO4CLudtR8gLA", "name": "The Bar Room", "address": "117 E 60th St", "coordinates": {"latitude": 40.763409, "longitude": -73.968449}, "num_reviews": 491, "rating": 4.0, "zipcode": "10022"}, {"cuisine_type": "American Cuisine", "business_id": "7xxlBDcXm7wwJW5OVD5bFQ", "name": "The Queensboro", "address": "80-02 Northern Blvd", "coordinates": {"latitude": 40.7552154, "longitude": -73.8870393}, "num_reviews": 204, "rating": 4.0, "zipcode": "11372"}, {"cuisine_type": "American Cuisine", "business_id": "JL_p-OHtSEYVfoeLQQgqDA", "name": "Casellula", "address": "401 W 52nd St", "coordinates": {"latitude": 40.76499, "longitude": -73.98835}, "num_reviews": 902, "rating": 4.0, "zipcode": "10019"}, {"cuisine_type": "American Cuisine", "business_id": "blaTQKod-nz94F3Fm_ZoYQ", "name": "Osteria Laura", "address": "1890 Adam Clayton Jr Blvd", "coordinates": {"latitude": 40.802591, "longitude": -73.95348}, "num_reviews": 7, "rating": 5.0, "zipcode": "10026"}, {"cuisine_type": "American Cuisine", "business_id": "6AC4yhUdnh64zE6b5-n6OQ", "name": "Renaissance Harlem", "address": "2245 Adam Clayton Powell", "coordinates": {"latitude": 40.8133399, "longitude": -73.94467}, "num_reviews": 181, "rating": 4.0, "zipcode": "10027"}, {"cuisine_type": "American Cuisine", "business_id": "B_kcyXzmkJlFI9pSl7PHvw", "name": "Restaurant Ukiyo", "address": "239 E 5th St", "coordinates": {"latitude": 40.72699, "longitude": -73.98922}, "num_reviews": 62, "rating": 4.5, "zipcode": "10003"}, {"cuisine_type": "American Cuisine", "business_id": "8XHbZIKDQbXhyKIGiukVeQ", "name": "Boucherie Union Square", "address": "225 Park Ave S", "coordinates": {"latitude": 40.73715, "longitude": -73.98789}, "num_reviews": 607, "rating": 4.5, "zipcode": "10003"}, {"cuisine_type": "American Cuisine", "business_id": "ypqK8DWM8Bcs43YveSJnNw", "name": "Manhatta", "address": "28 Liberty St", "coordinates": {"latitude": 40.70797, "longitude": -74.0088899}, "num_reviews": 384, "rating": 4.5, "zipcode": "10005"}, {"cuisine_type": "American Cuisine", "business_id": "6Lz2pAw1LqIa7nKsRUT52A", "name": "Tzarevna", "address": "154 Orchard St", "coordinates": {"latitude": 40.72082, "longitude": -73.98874}, "num_reviews": 32, "rating": 5.0, "zipcode": "10002"}, {"cuisine_type": "American Cuisine", "business_id": "dvkQIG20RjgNi-SwRr_1CQ", "name": "MAMO Restaurant", "address": "323 W Broadway", "coordinates": {"latitude": 40.72186, "longitude": -74.00382}, "num_reviews": 241, "rating": 4.0, "zipcode": "10013"}, {"cuisine_type": "American Cuisine", "business_id": "qrncvjkiKN5Z-JC06ygy6A", "name": "Hutong", "address": "731 Lexington Ave", "coordinates": {"latitude": 40.761551, "longitude": -73.967443}, "num_reviews": 130, "rating": 4.0, "zipcode": "10022"}, {"cuisine_type": "American Cuisine", "business_id": "XsElXaLxUPKquI78poB8yw", "name": "Maison Pickle", "address": "2313 Broadway", "coordinates": {"latitude": 40.7870043970907, "longitude": -73.9780229034143}, "num_reviews": 846, "rating": 4.0, "zipcode": "10024"}, {"cuisine_type": "American Cuisine", "business_id": "jYhbUh1TV7SCfPxjIhVpcg", "name": "Baar Baar", "address": "13 E 1st St", "coordinates": {"latitude": 40.7244378855031, "longitude": -73.9915524}, "num_reviews": 586, "rating": 4.0, "zipcode": "10003"}, {"cuisine_type": "American Cuisine", "business_id": "FBB7VTxx3gwsXwEUNRt6lg", "name": "TAK Room", "address": "20 Hudson Yards", "coordinates": {"latitude": 40.7491302490234, "longitude": -73.9923629760742}, "num_reviews": 70, "rating": 4.0, "zipcode": "10001"}, {"cuisine_type": "American Cuisine", "business_id": "_LJFf9YqpYxvExTvVxb7Rw", "name": "The Modern", "address": "9 W 53rd St", "coordinates": {"latitude": 40.7610060884932, "longitude": -73.9767725608521}, "num_reviews": 969, "rating": 4.5, "zipcode": "10019"}, {"cuisine_type": "American Cuisine", "business_id": "vkQSMwAf5yqDw9HfEQYgzw", "name": "The Flower Shop", "address": "107 Eldridge St", "coordinates": {"latitude": 40.71807, "longitude": -73.99213}, "num_reviews": 110, "rating": 4.0, "zipcode": "10002"}, {"cuisine_type": "American Cuisine", "business_id": "K_0tNvQd7gyabfJrodf-tw", "name": "Archer & Goat", "address": "187 Lenox Ave", "coordinates": {"latitude": 40.80432, "longitude": -73.94835}, "num_reviews": 62, "rating": 4.5, "zipcode": "10026"}, {"cuisine_type": "American Cuisine", "business_id": "utM-5navObsVA5sCRHobzA", "name": "Madre", "address": "214 Franklin St", "coordinates": {"latitude": 40.73311, "longitude": -73.95798}, "num_reviews": 36, "rating": 5.0, "zipcode": "11222"}, {"cuisine_type": "American Cuisine", "business_id": "aTFkjo0scqmOgsFF5kuGXg", "name": "Claudette", "address": "24 5th Ave", "coordinates": {"latitude": 40.7330367619291, "longitude": -73.9960286909289}, "num_reviews": 365, "rating": 4.0, "zipcode": "10011"}, {"cuisine_type": "American Cuisine", "business_id": "ywAq9nvr9jX1S7-_HjA5ng", "name": "Ferris", "address": "44 W 29th St", "coordinates": {"latitude": 40.74631, "longitude": -73.98948}, "num_reviews": 157, "rating": 4.0, "zipcode": "10001"}, {"cuisine_type": "American Cuisine", "business_id": "ddKmJRZ3D1iS-gbZq03OWQ", "name": "Friedmans", "address": "228 W 47th St", "coordinates": {"latitude": 40.7595053740559, "longitude": -73.9854379268717}, "num_reviews": 453, "rating": 4.0, "zipcode": "10036"}, {"cuisine_type": "American Cuisine", "business_id": "rKeUUuD4s0e6igmxTqbFnA", "name": "Coco J'adore", "address": "1 Little W 12th St", "coordinates": {"latitude": 40.7396062, "longitude": -74.005997}, "num_reviews": 88, "rating": 4.5, "zipcode": "10014"}, {"cuisine_type": "American Cuisine", "business_id": "zGtR4FNGDD1EjdxIzKF-HA", "name": "Pio Pio 6", "address": "702 Amsterdam Ave", "coordinates": {"latitude": 40.793007, "longitude": -73.971535}, "num_reviews": 732, "rating": 3.5, "zipcode": "10025"}, {"cuisine_type": "American Cuisine", "business_id": "xGNzAsakHgbbl9fwgSoiUg", "name": "Kahlo", "address": "525 West 29th Street", "coordinates": {"latitude": 40.75218, "longitude": -74.0026}, "num_reviews": 81, "rating": 4.5, "zipcode": "10001"}, {"cuisine_type": "American Cuisine", "business_id": "ZtjF2N3eYOjtnI3cES2fpw", "name": "Duke Eatery", "address": "300 Park Ave", "coordinates": {"latitude": 40.7569688575924, "longitude": -73.9750746534424}, "num_reviews": 50, "rating": 4.0, "zipcode": "10022"}, {"cuisine_type": "American Cuisine", "business_id": "8Oo2AtQEPDfxIOnA8wfXoQ", "name": "886", "address": "26 Saint Marks Pl", "coordinates": {"latitude": 40.72877, "longitude": -73.98873}, "num_reviews": 292, "rating": 4.0, "zipcode": "10003"}, {"cuisine_type": "American Cuisine", "business_id": "vGS5X12NYXCl8NpynlxRuw", "name": "Oscar Wilde", "address": "45 W 27th St", "coordinates": {"latitude": 40.74514, "longitude": -73.9900399}, "num_reviews": 562, "rating": 4.0, "zipcode": "10001"}, {"cuisine_type": "American Cuisine", "business_id": "npiIhpcWePbVT3JYEcy3zg", "name": "Wayan", "address": "20 Spring St", "coordinates": {"latitude": 40.7213813139202, "longitude": -73.9950757664721}, "num_reviews": 138, "rating": 4.0, "zipcode": "10012"}, {"cuisine_type": "American Cuisine", "business_id": "Vs5yyxnkokrVkP0q8UOtAw", "name": "Petra Bar & Restaurant", "address": "523 Evergreen Ave", "coordinates": {"latitude": 40.69046, "longitude": -73.91544}, "num_reviews": 32, "rating": 5.0, "zipcode": "11221"}, {"cuisine_type": "American Cuisine", "business_id": "qhyll2gPT-gGDRP6JGn1aQ", "name": "Bice Cucina", "address": "62 W 55th St", "coordinates": {"latitude": 40.7624702435463, "longitude": -73.9768997892404}, "num_reviews": 38, "rating": 4.5, "zipcode": "10019"}, {"cuisine_type": "American Cuisine", "business_id": "QaolMEijS7L6eodSneOdng", "name": "Tridim West", "address": "467 Columbus Ave", "coordinates": {"latitude": 40.78412, "longitude": -73.97368}, "num_reviews": 41, "rating": 4.5, "zipcode": "10024"}, {"cuisine_type": "American Cuisine", "business_id": "bM3lf5x02VdRgNIwVC7gNw", "name": "Bedford & Co", "address": "118 E 40th St", "coordinates": {"latitude": 40.7502799, "longitude": -73.97753}, "num_reviews": 246, "rating": 4.0, "zipcode": "10016"}, {"cuisine_type": "American Cuisine", "business_id": "UJe9_p6NEl0kA6xHVo5PKw", "name": "Amelie", "address": "566 Amsterdam Ave", "coordinates": {"latitude": 40.78875, "longitude": -73.97464}, "num_reviews": 162, "rating": 4.5, "zipcode": "10024"}, {"cuisine_type": "American Cuisine", "business_id": "a0IET3_yCFcO36OqGSsisg", "name": "Eataly NYC Flatiron", "address": "200 5th Ave", "coordinates": {"latitude": 40.74195877796, "longitude": -73.989716662832}, "num_reviews": 5385, "rating": 4.0, "zipcode": "10010"}, {"cuisine_type": "American Cuisine", "business_id": "GEbvV8QRegWwF6JQHfsOyA", "name": "The Fitz", "address": "687 Lexington Ave", "coordinates": {"latitude": 40.7606323, "longitude": -73.9692139}, "num_reviews": 24, "rating": 3.5, "zipcode": "10022"}, {"cuisine_type": "American Cuisine", "business_id": "DoSU8IPq-Py_YV3kYmXPfQ", "name": "Trattoria Trecolori", "address": "254 West 47th St", "coordinates": {"latitude": 40.75998, "longitude": -73.98671}, "num_reviews": 2264, "rating": 4.0, "zipcode": "10036"}, {"cuisine_type": "American Cuisine", "business_id": "L5iUBm_rH6cmjNyNVQV62A", "name": "Upper Story by Charlie Palmer", "address": "979 3rd Ave", "coordinates": {"latitude": 40.76096, "longitude": -73.96626}, "num_reviews": 33, "rating": 4.5, "zipcode": "10022"}, {"cuisine_type": "American Cuisine", "business_id": "nU4XBdvxDABXqZ6CnB8Dig", "name": "Clinton Street Baking Company", "address": "4 Clinton St", "coordinates": {"latitude": 40.721128, "longitude": -73.983933}, "num_reviews": 4859, "rating": 4.0, "zipcode": "10002"}, {"cuisine_type": "American Cuisine", "business_id": "EKkHfSYTm266-ZBve3SdgA", "name": "Yoon Haeundae Galbi", "address": "8 W 36th St", "coordinates": {"latitude": 40.74997, "longitude": -73.98442}, "num_reviews": 333, "rating": 4.5, "zipcode": "10018"}, {"cuisine_type": "American Cuisine", "business_id": "x5Y9bkJhYg7wnhG4DxvPAQ", "name": "MK Valencia", "address": "228 Main St", "coordinates": {"latitude": 40.857771, "longitude": -74.02511}, "num_reviews": 302, "rating": 4.0, "zipcode": "07660"}, {"cuisine_type": "American Cuisine", "business_id": "5NdHeWLgrXhIySx9ogCNQg", "name": "Upright", "address": "547 Hudson St", "coordinates": {"latitude": 40.734943, "longitude": -74.006359}, "num_reviews": 216, "rating": 4.0, "zipcode": "10014"}, {"cuisine_type": "American Cuisine", "business_id": "orYWYTk6kNK1YODsADk_tg", "name": "The Jin", "address": "856 10th Ave", "coordinates": {"latitude": 40.76857, "longitude": -73.98874}, "num_reviews": 156, "rating": 4.5, "zipcode": "10019"}, {"cuisine_type": "American Cuisine", "business_id": "2BRJP7YeiNuWSwyn2TdAoA", "name": "Kafana", "address": "116 Ave C", "coordinates": {"latitude": 40.72432, "longitude": -73.97851}, "num_reviews": 392, "rating": 4.0, "zipcode": "10009"}, {"cuisine_type": "American Cuisine", "business_id": "3V20VbC45XL4TBYTL9DrOg", "name": "David's Cafe", "address": "110 St Marks Pl", "coordinates": {"latitude": 40.7269310030458, "longitude": -73.9843428879976}, "num_reviews": 185, "rating": 4.0, "zipcode": "10009"}, {"cuisine_type": "American Cuisine", "business_id": "7_hGsGEkHrjgAiYVjrCFnw", "name": "Carbone", "address": "181 Thompson St", "coordinates": {"latitude": 40.728, "longitude": -74.0001497}, "num_reviews": 922, "rating": 4.0, "zipcode": "10012"}, {"cuisine_type": "American Cuisine", "business_id": "2Edq66lsiO17FSAVAlVVkA", "name": "Caf\u00e9  Standard", "address": "25 Cooper Sq", "coordinates": {"latitude": 40.727844, "longitude": -73.990739}, "num_reviews": 89, "rating": 3.5, "zipcode": "10003"}, {"cuisine_type": "American Cuisine", "business_id": "mWS4umRg2AyykyAClMrIRw", "name": "The Penrose", "address": "1590 2nd Ave", "coordinates": {"latitude": 40.7755334102308, "longitude": -73.9532487460327}, "num_reviews": 1125, "rating": 4.0, "zipcode": "10028"}, {"cuisine_type": "American Cuisine", "business_id": "WoZnkXZInggzgQM_LbDpGg", "name": "Le Baratin", "address": "26 Greenwich Ave", "coordinates": {"latitude": 40.735025, "longitude": -73.999857}, "num_reviews": 206, "rating": 4.0, "zipcode": "10011"}, {"cuisine_type": "American Cuisine", "business_id": "8wMJdpw2R_4VfS55itB_gQ", "name": "Sweetwater Restaurant", "address": "105 N 6th St", "coordinates": {"latitude": 40.7184736, "longitude": -73.9600178}, "num_reviews": 349, "rating": 4.0, "zipcode": "11249"}, {"cuisine_type": "American Cuisine", "business_id": "MHtbBc2np3sR7jiV9GphNg", "name": "Tribeca's Kitchen", "address": "200 Church St", "coordinates": {"latitude": 40.7162705535921, "longitude": -74.0072225927912}, "num_reviews": 459, "rating": 4.0, "zipcode": "10013"}, {"cuisine_type": "American Cuisine", "business_id": "5oN2CFibQ-9dsITEk7B4UQ", "name": "J J Kinahan\u2019s", "address": "757 6th Ave", "coordinates": {"latitude": 40.74439, "longitude": -73.99199}, "num_reviews": 40, "rating": 4.0, "zipcode": "10010"}, {"cuisine_type": "American Cuisine", "business_id": "r-EDS_eO70HUgDmOk5_8Qw", "name": "Juniper Bar", "address": "237 W 35th St", "coordinates": {"latitude": 40.7522805974308, "longitude": -73.9916151018524}, "num_reviews": 540, "rating": 4.0, "zipcode": "10001"}, {"cuisine_type": "American Cuisine", "business_id": "ETgJqJHV7BW6pIr9Ox74sA", "name": "Am\u00e9lie", "address": "22 W 8th St", "coordinates": {"latitude": 40.7327, "longitude": -73.99766}, "num_reviews": 2577, "rating": 4.5, "zipcode": "10011"}, {"cuisine_type": "American Cuisine", "business_id": "WqmqQ8c9NivfIRn3sO2KiA", "name": "The Ribbon", "address": "20 W 72nd St", "coordinates": {"latitude": 40.7765198, "longitude": -73.9774628}, "num_reviews": 373, "rating": 3.5, "zipcode": "10023"}, {"cuisine_type": "American Cuisine", "business_id": "zWem2SAbFc7lIYR2y9DE0g", "name": "Harlem Public", "address": "3612 Broadway", "coordinates": {"latitude": 40.828717774457, "longitude": -73.9484412254424}, "num_reviews": 891, "rating": 4.0, "zipcode": "10031"}, {"cuisine_type": "American Cuisine", "business_id": "liZmIO0FqZwslLJfLDkfgw", "name": "Wayla", "address": "100 Forsyth St", "coordinates": {"latitude": 40.71828, "longitude": -73.99275}, "num_reviews": 151, "rating": 4.5, "zipcode": "10002"}, {"cuisine_type": "American Cuisine", "business_id": "_m0UAJile3kJDJ9lb3p9bQ", "name": "The Painted Lady Saloon", "address": "1825 2nd Ave", "coordinates": {"latitude": 40.78336, "longitude": -73.94796}, "num_reviews": 61, "rating": 4.5, "zipcode": "10128"}, {"cuisine_type": "American Cuisine", "business_id": "7cjT33LfYSk7vrRdEaSr4w", "name": "Angeletto Restaurant", "address": "890 2nd Ave", "coordinates": {"latitude": 40.753188, "longitude": -73.969365}, "num_reviews": 176, "rating": 4.5, "zipcode": "10017"}, {"cuisine_type": "American Cuisine", "business_id": "tK_GcVOTG1_MjsepLMB6dg", "name": "Maloney & Porcelli", "address": "37 E 50th St", "coordinates": {"latitude": 40.7576, "longitude": -73.9747}, "num_reviews": 447, "rating": 4.0, "zipcode": "10022"}, {"cuisine_type": "American Cuisine", "business_id": "CaizM2WaGPX5eRLDOJaqIw", "name": "Angkor Cambodian Bistro", "address": "408 E 64th St", "coordinates": {"latitude": 40.76226, "longitude": -73.95914}, "num_reviews": 263, "rating": 4.5, "zipcode": "10065"}, {"cuisine_type": "American Cuisine", "business_id": "Bdneg2FELG-GNQnc-zq1YA", "name": "K\u0101wi", "address": "20 Hudson Yards", "coordinates": {"latitude": 40.7538408290715, "longitude": -74.0003704647111}, "num_reviews": 126, "rating": 4.0, "zipcode": "10001"}, {"cuisine_type": "American Cuisine", "business_id": "mc7WAD98zV2KG-WwOFyfFw", "name": "American Grill NYC", "address": "2987 Third Ave", "coordinates": {"latitude": 40.8188876, "longitude": -73.9142775}, "num_reviews": 7, "rating": 4.5, "zipcode": "10455"}, {"cuisine_type": "American Cuisine", "business_id": "NAlOPUbFQVE0bUu8_wmBLQ", "name": "Rezd\u00f4ra", "address": "27 E 20th St", "coordinates": {"latitude": 40.73901, "longitude": -73.9891}, "num_reviews": 105, "rating": 4.0, "zipcode": "10003"}, {"cuisine_type": "American Cuisine", "business_id": "jjJc_CrkB2HodEinB6cWww", "name": "LoveMama", "address": "174 2nd Ave", "coordinates": {"latitude": 40.7303859, "longitude": -73.9860613}, "num_reviews": 4590, "rating": 4.5, "zipcode": "10003"}, {"cuisine_type": "American Cuisine", "business_id": "dCcO8zw1xTgPs0HIHbiksA", "name": "Night Music", "address": "111 E 7th St", "coordinates": {"latitude": 40.72658, "longitude": -73.98454}, "num_reviews": 6, "rating": 4.5, "zipcode": "10009"}, {"cuisine_type": "American Cuisine", "business_id": "mWi1AZgb8HJjDsnz5lXsLA", "name": "Hunt & Fish Club", "address": "125 W 44th St", "coordinates": {"latitude": 40.75673, "longitude": -73.9843}, "num_reviews": 503, "rating": 4.0, "zipcode": "10036"}, {"cuisine_type": "American Cuisine", "business_id": "XEugUtbw4rRmGr9S1XA-aQ", "name": "Alta", "address": "64 W 10th St", "coordinates": {"latitude": 40.7345163811398, "longitude": -73.9983369619683}, "num_reviews": 1850, "rating": 4.0, "zipcode": "10011"}, {"cuisine_type": "American Cuisine", "business_id": "SjG7CnTIuUBIo9T4BThkGQ", "name": "Employees Only", "address": "510 Hudson St", "coordinates": {"latitude": 40.73343, "longitude": -74.00617}, "num_reviews": 1425, "rating": 4.0, "zipcode": "10014"}, {"cuisine_type": "American Cuisine", "business_id": "AlStrNBqyH6WB9QGMEtcTw", "name": "Quality Eats", "address": "3 E 28th St", "coordinates": {"latitude": 40.74451, "longitude": -73.98661}, "num_reviews": 252, "rating": 4.0, "zipcode": "10016"}, {"cuisine_type": "American Cuisine", "business_id": "MIsxw3cb4ByYyH2G1KzrZQ", "name": "Steak 'N Lobster", "address": "129 W 29th St", "coordinates": {"latitude": 40.74731, "longitude": -73.99135}, "num_reviews": 67, "rating": 4.0, "zipcode": "10001"}, {"cuisine_type": "American Cuisine", "business_id": "pfmAcS-g6SiNG0KlLvrqnA", "name": "Beauty & Essex", "address": "146 Essex St", "coordinates": {"latitude": 40.72037, "longitude": -73.98677}, "num_reviews": 3381, "rating": 4.0, "zipcode": "10002"}, {"cuisine_type": "American Cuisine", "business_id": "PGpCaNkB1meojnbgRmb2gQ", "name": "Buena Vista Restaurant & Bar", "address": "536 9th Ave", "coordinates": {"latitude": 40.75686, "longitude": -73.99356}, "num_reviews": 132, "rating": 4.5, "zipcode": "10018"}, {"cuisine_type": "American Cuisine", "business_id": "Jy0nQ1uI8KPvTv8nBZGdMg", "name": "Wildair", "address": "142 Orchard St", "coordinates": {"latitude": 40.7197229753629, "longitude": -73.98919771717}, "num_reviews": 166, "rating": 4.0, "zipcode": "10002"}, {"cuisine_type": "American Cuisine", "business_id": "X2mfQ5SOE5eMuUzPrI_pwA", "name": "Esperanto", "address": "145 Ave C", "coordinates": {"latitude": 40.725474, "longitude": -73.978054}, "num_reviews": 686, "rating": 3.5, "zipcode": "10009"}, {"cuisine_type": "American Cuisine", "business_id": "tmbW6_dJs5-UXhvROO093Q", "name": "Casa d'Paco", "address": "73 Warwick St", "coordinates": {"latitude": 40.72529, "longitude": -74.16309}, "num_reviews": 593, "rating": 4.5, "zipcode": "07105"}, {"cuisine_type": "American Cuisine", "business_id": "3xTQT7qjZJIxc-eBiFMerQ", "name": "1803", "address": "82 Reade St", "coordinates": {"latitude": 40.715498, "longitude": -74.007178}, "num_reviews": 311, "rating": 4.5, "zipcode": "10007"}, {"cuisine_type": "American Cuisine", "business_id": "fSQ3CCtFSJ2S8VXDi02-3Q", "name": "Cafe Luxembourg", "address": "200 W 70th St", "coordinates": {"latitude": 40.77741, "longitude": -73.98312}, "num_reviews": 470, "rating": 4.0, "zipcode": "10023"}, {"cuisine_type": "American Cuisine", "business_id": "MaZWYgvu08NLQVRcDGGvqQ", "name": "Zhen Wei Fang", "address": "207 Bowery", "coordinates": {"latitude": 40.72128, "longitude": -73.99343}, "num_reviews": 156, "rating": 4.0, "zipcode": "10002"}, {"cuisine_type": "American Cuisine", "business_id": "H_TGP2AgX3IUmzq8Aml79Q", "name": "L' Angolo Tribeca", "address": "190-A Duane St", "coordinates": {"latitude": 40.71734, "longitude": -74.01044}, "num_reviews": 118, "rating": 3.5, "zipcode": "10013"}, {"cuisine_type": "American Cuisine", "business_id": "xq0cX_DgxiJMXwhmEl9kUA", "name": "Caf\u00e9 China", "address": "13 E 37th St", "coordinates": {"latitude": 40.7499225208569, "longitude": -73.9819464127197}, "num_reviews": 1558, "rating": 4.0, "zipcode": "10016"}, {"cuisine_type": "American Cuisine", "business_id": "9vYSRXdp5JtFmqhi0FigMA", "name": "Le Relais De Venise L'Entrec\u00f4te", "address": "590 Lexington Ave", "coordinates": {"latitude": 40.7577089110773, "longitude": -73.9717626571655}, "num_reviews": 773, "rating": 4.0, "zipcode": "10022"}, {"cuisine_type": "American Cuisine", "business_id": "ndRkgrkoCugt2qy0LMVQ_Q", "name": "Walter Foods", "address": "253 Grand St", "coordinates": {"latitude": 40.713588, "longitude": -73.958488}, "num_reviews": 499, "rating": 4.0, "zipcode": "11211"}, {"cuisine_type": "American Cuisine", "business_id": "Wdt-exLSaHXQRH7V_7-VVg", "name": "Spoonfed New York Country", "address": "331 W 51st St", "coordinates": {"latitude": 40.7636295, "longitude": -73.9868805}, "num_reviews": 452, "rating": 4.0, "zipcode": "10019"}, {"cuisine_type": "American Cuisine", "business_id": "C2o3Iw-DXjoUJFgQIbiqkQ", "name": "BoCaphe", "address": "222 Lafayette St", "coordinates": {"latitude": 40.722046, "longitude": -73.997557}, "num_reviews": 1297, "rating": 4.0, "zipcode": "10012"}, {"cuisine_type": "American Cuisine", "business_id": "vscYK65F_MUH8WqACKSdog", "name": "The Musket Room", "address": "265 Elizabeth St", "coordinates": {"latitude": 40.72392, "longitude": -73.99378}, "num_reviews": 428, "rating": 4.5, "zipcode": "10012"}, {"cuisine_type": "American Cuisine", "business_id": "DZaN3bNWfwcm__sNw5bvDg", "name": "Daniel", "address": "60 E 65th St", "coordinates": {"latitude": 40.7667736797858, "longitude": -73.967607}, "num_reviews": 1555, "rating": 4.5, "zipcode": "10065"}, {"cuisine_type": "American Cuisine", "business_id": "CPtMBPklRS2z36xiD9sA2A", "name": "27 Morton", "address": "27 1/2 Morton St", "coordinates": {"latitude": 40.73111, "longitude": -74.00452}, "num_reviews": 36, "rating": 5.0, "zipcode": "10014"}, {"cuisine_type": "American Cuisine", "business_id": "9YXvNE2jpEhA4k6M8WDH7A", "name": "\u00d1a\u00f1o Ecuadorian Kitchen", "address": "691 10th Ave", "coordinates": {"latitude": 40.7631, "longitude": -73.99335}, "num_reviews": 533, "rating": 4.5, "zipcode": "10036"}, {"cuisine_type": "American Cuisine", "business_id": "Rq7B5m9nYiRRRHa8CvPDTg", "name": "Edward's", "address": "136 W Broadway", "coordinates": {"latitude": 40.716972, "longitude": -74.008369}, "num_reviews": 227, "rating": 3.5, "zipcode": "10013"}, {"cuisine_type": "American Cuisine", "business_id": "Dr_eezrA2Cc_azMYnwhRkA", "name": "Sup Crab", "address": "97 Bowery", "coordinates": {"latitude": 40.71733, "longitude": -73.99502}, "num_reviews": 139, "rating": 4.0, "zipcode": "10002"}, {"cuisine_type": "American Cuisine", "business_id": "nC4HwtW5_nDICBAVPqN9pw", "name": "Sagaponack Bar & Grill", "address": "4 W 22nd St", "coordinates": {"latitude": 40.7409324645996, "longitude": -73.9907836914062}, "num_reviews": 353, "rating": 4.0, "zipcode": "10010"}, {"cuisine_type": "American Cuisine", "business_id": "5Akss-swwfyoSVeIsDBbvw", "name": "Basta Pasta", "address": "37 W 17th St", "coordinates": {"latitude": 40.73881, "longitude": -73.99407}, "num_reviews": 1392, "rating": 4.0, "zipcode": "10011"}, {"cuisine_type": "American Cuisine", "business_id": "-7iUpGTNDdy4WjxLGYp-_g", "name": "Trattoria Italienne", "address": "19 W 24th St", "coordinates": {"latitude": 40.7430619, "longitude": -73.9903948}, "num_reviews": 133, "rating": 4.5, "zipcode": "10010"}, {"cuisine_type": "American Cuisine", "business_id": "KL6AUMQI_Ae7_brkK0fy_w", "name": "La Vela Dining & Bar", "address": "558 11th Ave", "coordinates": {"latitude": 40.761082, "longitude": -73.997872}, "num_reviews": 163, "rating": 4.0, "zipcode": "10036"}, {"cuisine_type": "American Cuisine", "business_id": "fPa-Ai7WucnRd6OcZYHSyg", "name": "Prohibition", "address": "503 Columbus Ave", "coordinates": {"latitude": 40.78526, "longitude": -73.97284}, "num_reviews": 375, "rating": 3.5, "zipcode": "10024"}, {"cuisine_type": "American Cuisine", "business_id": "Wx6lMnEh7dCmX-9PQF1Ifw", "name": "Toloache 50", "address": "251 West 50th St", "coordinates": {"latitude": 40.762325, "longitude": -73.9855741}, "num_reviews": 1872, "rating": 4.0, "zipcode": "10012"}, {"cuisine_type": "American Cuisine", "business_id": "4PeBRQZgHMW80J5YIaT39A", "name": "The Loyal", "address": "289 Bleecker St", "coordinates": {"latitude": 40.7321627859791, "longitude": -74.0033025943349}, "num_reviews": 180, "rating": 4.0, "zipcode": "10014"}, {"cuisine_type": "American Cuisine", "business_id": "6hw4ibsutVoMl_RK0aAJ7Q", "name": "The Black Derby", "address": "310 W 4th St", "coordinates": {"latitude": 40.737266, "longitude": -74.00399}, "num_reviews": 173, "rating": 4.5, "zipcode": "10014"}, {"cuisine_type": "American Cuisine", "business_id": "mTWlEiCUEBlxBAkIikkB1A", "name": "Carmine's Italian Restaurant - Upper West Side", "address": "2450 Broadway", "coordinates": {"latitude": 40.791077, "longitude": -73.973763}, "num_reviews": 1293, "rating": 4.0, "zipcode": "10024"}, {"cuisine_type": "American Cuisine", "business_id": "3y_-DwmoM198umnZHSOmKQ", "name": "Yves", "address": "385 Greenwich St", "coordinates": {"latitude": 40.72021, "longitude": -74.00996}, "num_reviews": 58, "rating": 4.0, "zipcode": "10013"}, {"cuisine_type": "American Cuisine", "business_id": "IGZkGbwE36iE1yaDW5NNKA", "name": "The Flying Cock", "address": "497 3rd Ave", "coordinates": {"latitude": 40.745296, "longitude": -73.978073}, "num_reviews": 499, "rating": 4.0, "zipcode": "10016"}, {"cuisine_type": "American Cuisine", "business_id": "WJS06XxRdc6DD1s4LWE9HA", "name": "Fish Cheeks", "address": "55 Bond St", "coordinates": {"latitude": 40.7258, "longitude": -73.9927}, "num_reviews": 479, "rating": 4.5, "zipcode": "10012"}, {"cuisine_type": "American Cuisine", "business_id": "p-PJcI8SYIi_mowY5svQOA", "name": "Nomad", "address": "78 2nd Ave", "coordinates": {"latitude": 40.72638, "longitude": -73.98904}, "num_reviews": 436, "rating": 3.5, "zipcode": "10003"}, {"cuisine_type": "American Cuisine", "business_id": "SaYTVG7wHCMDBofHCgXPaA", "name": "Dutch Freds", "address": "307 W 47th St", "coordinates": {"latitude": 40.76071, "longitude": -73.98793}, "num_reviews": 1395, "rating": 4.5, "zipcode": "10036"}, {"cuisine_type": "American Cuisine", "business_id": "0Tvwk0hvgaY0QVIsZGTZKQ", "name": "Antica Ristorante", "address": "8 Stone St", "coordinates": {"latitude": 40.7039355145338, "longitude": -74.0121731758117}, "num_reviews": 483, "rating": 4.5, "zipcode": "10004"}, {"cuisine_type": "American Cuisine", "business_id": "oSKS8tI6-3yzRDq-VRuvPw", "name": "Cleo", "address": "444 Park Ave S", "coordinates": {"latitude": 40.7448, "longitude": -73.98324}, "num_reviews": 97, "rating": 4.0, "zipcode": "10016"}, {"cuisine_type": "American Cuisine", "business_id": "22nKUyCIbpnzR6R3_g1ptQ", "name": "Carmine's Italian Restaurant - Times Square", "address": "200 W 44th St", "coordinates": {"latitude": 40.7574955824307, "longitude": -73.9866844540098}, "num_reviews": 3604, "rating": 4.0, "zipcode": "10036"}, {"cuisine_type": "American Cuisine", "business_id": "zTK8reqKrmV7U71YVHYYjg", "name": "Armani Ristorante", "address": "717 5th Ave", "coordinates": {"latitude": 40.7618463161798, "longitude": -73.9742299834671}, "num_reviews": 224, "rating": 4.0, "zipcode": "10022"}, {"cuisine_type": "American Cuisine", "business_id": "d-DQwNxs77Pah2ys0q7w1Q", "name": "American Cut Steakhouse Tribeca", "address": "363 Greenwich St", "coordinates": {"latitude": 40.71915, "longitude": -74.00994}, "num_reviews": 564, "rating": 4.0, "zipcode": "10013"}, {"cuisine_type": "American Cuisine", "business_id": "qHi_FA4zSEkFshXQ4Chc9A", "name": "Jiang Diner", "address": "309 E 5th St", "coordinates": {"latitude": 40.72665, "longitude": -73.98838}, "num_reviews": 81, "rating": 4.0, "zipcode": "10003"}, {"cuisine_type": "American Cuisine", "business_id": "UA2M9QFZghe-9th2KwLoWQ", "name": "Burger & Lobster", "address": "39 W 19th St", "coordinates": {"latitude": 40.74007, "longitude": -73.99344}, "num_reviews": 5279, "rating": 4.0, "zipcode": "10011"}, {"cuisine_type": "American Cuisine", "business_id": "9pMhRYYgV7E9L7pzECtJKA", "name": "The Drunken Munkey - UES", "address": "338 E 92nd St", "coordinates": {"latitude": 40.78098, "longitude": -73.94751}, "num_reviews": 955, "rating": 4.5, "zipcode": "10128"}, {"cuisine_type": "American Cuisine", "business_id": "obFs12x7mgYPGxgalBd22w", "name": "Le Coucou", "address": "138 Lafayette St", "coordinates": {"latitude": 40.71909, "longitude": -74.00013}, "num_reviews": 515, "rating": 4.0, "zipcode": "10013"}, {"cuisine_type": "American Cuisine", "business_id": "3o0W7asUgP7EEKn8iFWFyA", "name": "Casa Nonna", "address": "310 W 38th St", "coordinates": {"latitude": 40.75496, "longitude": -73.99247}, "num_reviews": 515, "rating": 4.0, "zipcode": "10018"}, {"cuisine_type": "American Cuisine", "business_id": "qLLxS7RwNEjP_jq_KQrPfA", "name": "Traif", "address": "229 S 4th St", "coordinates": {"latitude": 40.710658, "longitude": -73.958872}, "num_reviews": 1832, "rating": 4.5, "zipcode": "11211"}, {"cuisine_type": "American Cuisine", "business_id": "sNeefaiRztDQ10B4QzUi3g", "name": "Shuraku", "address": "47 8th Ave", "coordinates": {"latitude": 40.7385446555585, "longitude": -74.0040071109515}, "num_reviews": 72, "rating": 4.5, "zipcode": "10014"}, {"cuisine_type": "American Cuisine", "business_id": "gaxx8auiAGlKW3FTF0N-ww", "name": "Bubby's High Line", "address": "73 Gansevoort St", "coordinates": {"latitude": 40.7395398791443, "longitude": -74.0078054871199}, "num_reviews": 739, "rating": 3.5, "zipcode": "10014"}, {"cuisine_type": "American Cuisine", "business_id": "zee3qxLz2jHJumDEL6EitA", "name": "Sidecar", "address": "560 5th Ave", "coordinates": {"latitude": 40.665421, "longitude": -73.989748}, "num_reviews": 448, "rating": 3.5, "zipcode": "11215"}, {"cuisine_type": "American Cuisine", "business_id": "xZ96vaoL-cQjfotmUKtjJQ", "name": "Barn Joo 35", "address": "34 W 35th St", "coordinates": {"latitude": 40.74964, "longitude": -73.98582}, "num_reviews": 1755, "rating": 4.5, "zipcode": "10001"}, {"cuisine_type": "American Cuisine", "business_id": "5UxJoqkdYrUEjArx8YITMw", "name": "Atlantic Grill", "address": "49 W 64th St", "coordinates": {"latitude": 40.7720766219859, "longitude": -73.9814548431266}, "num_reviews": 563, "rating": 3.5, "zipcode": "10023"}, {"cuisine_type": "American Cuisine", "business_id": "Pu09oBx1ekEZiFt90PsSIw", "name": "Tableside Italian Cook Shoppe", "address": "345 E 6th St", "coordinates": {"latitude": 40.7266287, "longitude": -73.9863384}, "num_reviews": 233, "rating": 4.5, "zipcode": "10003"}, {"cuisine_type": "American Cuisine", "business_id": "D2qV8sDdHEFlHbVz7VSHRQ", "name": "Black Tap - Soho", "address": "529 Broome St", "coordinates": {"latitude": 40.723807, "longitude": -74.004351}, "num_reviews": 1108, "rating": 3.5, "zipcode": "10013"}, {"cuisine_type": "American Cuisine", "business_id": "pBNMZp_tKCAfRNx7-ybcHQ", "name": "Calle Dao - Chelsea", "address": "461 W 23rd St", "coordinates": {"latitude": 40.7476515, "longitude": -74.0037312}, "num_reviews": 503, "rating": 4.5, "zipcode": "10011"}, {"cuisine_type": "American Cuisine", "business_id": "-udRA8VRsQJoIaT-kxCrGg", "name": "Ipanema Restaurant", "address": "43 W 46th St", "coordinates": {"latitude": 40.757072217349, "longitude": -73.9807795529175}, "num_reviews": 1304, "rating": 4.0, "zipcode": "10036"}, {"cuisine_type": "American Cuisine", "business_id": "deGWrCulECC2mYKDIbQYwA", "name": "TSISMIS", "address": "143 Orchard St", "coordinates": {"latitude": 40.72012, "longitude": -73.98932}, "num_reviews": 31, "rating": 4.0, "zipcode": "10002"}, {"cuisine_type": "American Cuisine", "business_id": "wx9mXol6jOrUoAK4vaFS9Q", "name": "Mission Ceviche", "address": "1400 2nd Ave", "coordinates": {"latitude": 40.7692325, "longitude": -73.9578759}, "num_reviews": 72, "rating": 4.5, "zipcode": "10021"}, {"cuisine_type": "American Cuisine", "business_id": "26emJlm1YMFyOCezfgVk4g", "name": "Da Raffaele", "address": "883 First Ave", "coordinates": {"latitude": 40.7535386913133, "longitude": -73.9666010811925}, "num_reviews": 156, "rating": 4.5, "zipcode": "10022"}, {"cuisine_type": "American Cuisine", "business_id": "NqwwyMMXIS-JnwdDQBQT9A", "name": "Bazar Tapas Bar and Restaurant", "address": "31 W 26th St", "coordinates": {"latitude": 40.74437, "longitude": -73.99014}, "num_reviews": 377, "rating": 4.0, "zipcode": "10010"}, {"cuisine_type": "American Cuisine", "business_id": "qLL_x4uzDHCgXd9lwaGxjw", "name": "Frevo", "address": "48 W 8th St", "coordinates": {"latitude": 40.73313, "longitude": -73.99867}, "num_reviews": 10, "rating": 4.5, "zipcode": "10011"}, {"cuisine_type": "American Cuisine", "business_id": "LXdblKc5g1Dp17xiV-Am1w", "name": "Trattoria Dell'Arte", "address": "900 7th Ave", "coordinates": {"latitude": 40.765295646702, "longitude": -73.98046281606}, "num_reviews": 969, "rating": 4.0, "zipcode": "10019"}, {"cuisine_type": "American Cuisine", "business_id": "28CNHYULci66pJAz-0_pOg", "name": "Cote", "address": "16 W 22nd St", "coordinates": {"latitude": 40.741192, "longitude": -73.991314}, "num_reviews": 761, "rating": 4.0, "zipcode": "10010"}, {"cuisine_type": "American Cuisine", "business_id": "PQd4M3cuSgdweWgLgZIslQ", "name": "Inatteso Pizzabar Casano", "address": "28 West St", "coordinates": {"latitude": 40.7056571, "longitude": -74.0172056}, "num_reviews": 309, "rating": 4.0, "zipcode": "10004"}, {"cuisine_type": "American Cuisine", "business_id": "w4cFJhUpjGXqqWBd3BbY4w", "name": "Freemans", "address": "Freeman Alley", "coordinates": {"latitude": 40.721988, "longitude": -73.992466}, "num_reviews": 2020, "rating": 4.0, "zipcode": "10002"}, {"cuisine_type": "American Cuisine", "business_id": "ZHPp0z9Tr6qfjj2wCleLWw", "name": "HYUN", "address": "10 E 33rd St", "coordinates": {"latitude": 40.7474, "longitude": -73.98444}, "num_reviews": 76, "rating": 4.0, "zipcode": "10016"}, {"cuisine_type": "American Cuisine", "business_id": "XipQLDbyTl5tsLlyzAWzug", "name": "Jajaja", "address": "162 E Broadway", "coordinates": {"latitude": 40.7141530317142, "longitude": -73.9904247969389}, "num_reviews": 807, "rating": 4.5, "zipcode": "10002"}, {"cuisine_type": "American Cuisine", "business_id": "0Q3xCYWK2N-wJfXjLa9dFg", "name": "B\u00e2tard", "address": "239 West Broadway", "coordinates": {"latitude": 40.7195533039813, "longitude": -74.0057982895201}, "num_reviews": 381, "rating": 4.0, "zipcode": "10013"}, {"cuisine_type": "American Cuisine", "business_id": "B2EVXQCqfzludPiWWuZ8ag", "name": "Simon & The Whale", "address": "23 Lexington Ave", "coordinates": {"latitude": 40.739848, "longitude": -73.984254}, "num_reviews": 166, "rating": 4.0, "zipcode": "10010"}, {"cuisine_type": "American Cuisine", "business_id": "xsQTIeq-WLkp4ParkTQpMQ", "name": "PizzArte", "address": "69 W 55th St", "coordinates": {"latitude": 40.7629335072372, "longitude": -73.9776668697596}, "num_reviews": 1049, "rating": 4.0, "zipcode": "10019"}, {"cuisine_type": "American Cuisine", "business_id": "jIbFA311ECY4Fv4L0JikdQ", "name": "Just Pho", "address": "252 W 31st St", "coordinates": {"latitude": 40.74989, "longitude": -73.99425}, "num_reviews": 89, "rating": 4.5, "zipcode": "10001"}, {"cuisine_type": "American Cuisine", "business_id": "vgg1dvDP-9tFWSacN4q0nA", "name": "Coppelia", "address": "207 W 14th St", "coordinates": {"latitude": 40.73897, "longitude": -73.99995}, "num_reviews": 1293, "rating": 4.0, "zipcode": "10011"}, {"cuisine_type": "American Cuisine", "business_id": "NXZFu7KHBrG02gzYneY5Xg", "name": "Ugly Kitchen", "address": "103 1st Ave", "coordinates": {"latitude": 40.7266856651479, "longitude": -73.9862178981476}, "num_reviews": 601, "rating": 4.0, "zipcode": "10003"}, {"cuisine_type": "American Cuisine", "business_id": "ovPOV2iy0d4H4_aWTnXAew", "name": "Flavors Cafe", "address": "27 Whitehall St", "coordinates": {"latitude": 40.703517, "longitude": -74.013014}, "num_reviews": 3, "rating": 3.5, "zipcode": "10004"}, {"cuisine_type": "American Cuisine", "business_id": "zo4mcEfVKaktdj_gnSFhGQ", "name": "Cafe Katja", "address": "79 Orchard St", "coordinates": {"latitude": 40.7177673, "longitude": -73.990589}, "num_reviews": 767, "rating": 4.5, "zipcode": "10002"}, {"cuisine_type": "American Cuisine", "business_id": "EmJ7rfmv2y6lQZxgA8U__g", "name": "Red Peony Chinese Cuisine", "address": "24 W 56th St", "coordinates": {"latitude": 40.76278, "longitude": -73.97589}, "num_reviews": 44, "rating": 4.0, "zipcode": "10019"}, {"cuisine_type": "American Cuisine", "business_id": "7Tu5l9UfWVi_v3m4TwJAxQ", "name": "Caffe dei Fiori", "address": "973 Lexington Ave", "coordinates": {"latitude": 40.76935, "longitude": -73.9627}, "num_reviews": 77, "rating": 4.5, "zipcode": "10021"}, {"cuisine_type": "American Cuisine", "business_id": "v8_MaF5d2u5qZ6evINBsig", "name": "Coarse NY", "address": "306 W 13th St", "coordinates": {"latitude": 40.73913, "longitude": -74.00363}, "num_reviews": 206, "rating": 4.5, "zipcode": "10014"}, {"cuisine_type": "American Cuisine", "business_id": "5MpWHGQ6Qc-M4q1KL_nioA", "name": "Bar B", "address": "84 7th Ave", "coordinates": {"latitude": 40.7395804, "longitude": -73.999118}, "num_reviews": 171, "rating": 4.5, "zipcode": "10011"}, {"cuisine_type": "American Cuisine", "business_id": "CgYWuNH0UHd5vp2vGgKflw", "name": "wagamama - murray hill", "address": "605 3rd Ave", "coordinates": {"latitude": 40.74909, "longitude": -73.9754}, "num_reviews": 186, "rating": 4.0, "zipcode": "10158"}, {"cuisine_type": "American Cuisine", "business_id": "clOFor0bFSjse7EUfdRacg", "name": "Faro", "address": "436 Jefferson St", "coordinates": {"latitude": 40.707407, "longitude": -73.922839}, "num_reviews": 268, "rating": 4.0, "zipcode": "11237"}, {"cuisine_type": "American Cuisine", "business_id": "6tASYtO9zOrXr8-LPnAToQ", "name": "Zest Szechuan", "address": "45 W 39th St", "coordinates": {"latitude": 40.75274, "longitude": -73.98445}, "num_reviews": 550, "rating": 4.0, "zipcode": "10018"}, {"cuisine_type": "American Cuisine", "business_id": "Ui-E0CK2BBVVoOzulzzhcQ", "name": "Carmen's Kitchen", "address": "302 W 38th St", "coordinates": {"latitude": 40.7547995, "longitude": -73.9921988}, "num_reviews": 19, "rating": 4.5, "zipcode": "10011"}, {"cuisine_type": "American Cuisine", "business_id": "uuHujhrkVQdS8XVSGWW2mA", "name": "Cebu Bar & Bistro", "address": "8801 3rd Ave", "coordinates": {"latitude": 40.62186, "longitude": -74.031383}, "num_reviews": 663, "rating": 4.0, "zipcode": "11209"}, {"cuisine_type": "American Cuisine", "business_id": "kC6VZfrwFvav9PryA3eRCA", "name": "Bar SixtyFive", "address": "30 Rockefeller Plz", "coordinates": {"latitude": 40.7591284113218, "longitude": -73.9796703204086}, "num_reviews": 338, "rating": 4.0, "zipcode": "10112"}, {"cuisine_type": "American Cuisine", "business_id": "vjubSxmdG_HoBBgd39geBw", "name": "Nino's 46", "address": "39 W 46th St", "coordinates": {"latitude": 40.7569159, "longitude": -73.980516}, "num_reviews": 1120, "rating": 4.0, "zipcode": "10036"}, {"cuisine_type": "American Cuisine", "business_id": "h37t9rA06Sr4EetJjKrfzw", "name": "Don Angie", "address": "103 Greenwich Ave", "coordinates": {"latitude": 40.73778, "longitude": -74.00197}, "num_reviews": 271, "rating": 4.5, "zipcode": "10014"}, {"cuisine_type": "American Cuisine", "business_id": "D4f6htB176SAxS1q0rZX3A", "name": "Avo's Grill", "address": "720 Anderson Ave", "coordinates": {"latitude": 40.829162, "longitude": -73.98592}, "num_reviews": 191, "rating": 4.5, "zipcode": "07010"}, {"cuisine_type": "American Cuisine", "business_id": "objNX6cuj1JyUijFjw21Qw", "name": "The Drunken Munkey - West Village", "address": "31 Cornelia St", "coordinates": {"latitude": 40.73136, "longitude": -74.00253}, "num_reviews": 147, "rating": 4.5, "zipcode": "10014"}, {"cuisine_type": "American Cuisine", "business_id": "LJntAPKObO0OfydYm3_bzQ", "name": "Kings Co Imperial", "address": "168 1/2 Delancey St", "coordinates": {"latitude": 40.7179421782795, "longitude": -73.9854200459023}, "num_reviews": 49, "rating": 4.0, "zipcode": "10002"}, {"cuisine_type": "American Cuisine", "business_id": "R7EGjHWw0tNheY6-ahH8fQ", "name": "Tuome", "address": "536 E 5th St", "coordinates": {"latitude": 40.72412482724, "longitude": -73.9828906263924}, "num_reviews": 465, "rating": 4.5, "zipcode": "10009"}, {"cuisine_type": "American Cuisine", "business_id": "FEDV_4qWbTBauNAgezUJXg", "name": "Niles NYC", "address": "371 7th Ave", "coordinates": {"latitude": 40.74885, "longitude": -73.99197}, "num_reviews": 210, "rating": 3.5, "zipcode": "10001"}, {"cuisine_type": "American Cuisine", "business_id": "YL50wX8_PyeQE6NylT8YVQ", "name": "Tonic Bar & Restaurant", "address": "727 7th Ave", "coordinates": {"latitude": 40.75999, "longitude": -73.98366}, "num_reviews": 605, "rating": 3.5, "zipcode": "10019"}, {"cuisine_type": "American Cuisine", "business_id": "aXPvbifX51u27Ls4gzftZw", "name": "TGA NYC", "address": "320 W 36th St", "coordinates": {"latitude": 40.75374, "longitude": -73.99374}, "num_reviews": 88, "rating": 4.0, "zipcode": "10018"}, {"cuisine_type": "American Cuisine", "business_id": "3PabSEZ2ESexVFZznyozVw", "name": "Delice & Sarrasin", "address": "20 Christopher St", "coordinates": {"latitude": 40.73377, "longitude": -74.00065}, "num_reviews": 374, "rating": 4.0, "zipcode": "10014"}, {"cuisine_type": "American Cuisine", "business_id": "jQZu0WdLBYQZpdx3FDiOwQ", "name": "Wogies Bar and Grill", "address": "44 Trinity Pl", "coordinates": {"latitude": 40.70723, "longitude": -74.01342}, "num_reviews": 128, "rating": 3.5, "zipcode": "10006"}, {"cuisine_type": "American Cuisine", "business_id": "Xk3BVvlX-KXh6kJhbClMKw", "name": "Fine & Rare", "address": "9 E 37th St", "coordinates": {"latitude": 40.7501754760742, "longitude": -73.9821929931641}, "num_reviews": 292, "rating": 4.5, "zipcode": "10016"}, {"cuisine_type": "American Cuisine", "business_id": "jWuUibgnTGsJibOrr6UUSw", "name": "Haidilao Hotpot", "address": "138-23 39th Ave", "coordinates": {"latitude": 40.7612633, "longitude": -73.8280301}, "num_reviews": 377, "rating": 4.5, "zipcode": "11354"}, {"cuisine_type": "American Cuisine", "business_id": "0k678lCWQyReNi0lARlOmw", "name": "China Blue", "address": "135 Watts St", "coordinates": {"latitude": 40.724038, "longitude": -74.009958}, "num_reviews": 669, "rating": 4.0, "zipcode": "10013"}, {"cuisine_type": "American Cuisine", "business_id": "zscLFr_wQUmSRGkup2YjpA", "name": "Mexicue", "address": "1429 3rd Ave", "coordinates": {"latitude": 40.77536, "longitude": -73.95628}, "num_reviews": 148, "rating": 4.0, "zipcode": "10028"}, {"cuisine_type": "American Cuisine", "business_id": "lgHmMRBaU-48kGaNz3jYxg", "name": "Chairman Sun \u56fd\u8272\u5929\u6e58", "address": "47-30 Vernon Blvd", "coordinates": {"latitude": 40.74465, "longitude": -73.95375}, "num_reviews": 75, "rating": 4.0, "zipcode": "11101"}, {"cuisine_type": "American Cuisine", "business_id": "NsACuDqm5AVPpUocvuXONg", "name": "Atomix", "address": "104 E 30th St", "coordinates": {"latitude": 40.74421, "longitude": -73.98286}, "num_reviews": 56, "rating": 4.5, "zipcode": "10016"}, {"cuisine_type": "American Cuisine", "business_id": "BtVnZmPY51ZWGY63-mzJ7A", "name": "ON", "address": "110 Madison Ave", "coordinates": {"latitude": 40.74502, "longitude": -73.98513}, "num_reviews": 83, "rating": 4.5, "zipcode": "10016"}, {"cuisine_type": "American Cuisine", "business_id": "oLg2HxLYChgvMRTK5ZSdKQ", "name": "Kurant", "address": "1091 2nd Ave", "coordinates": {"latitude": 40.75971, "longitude": -73.96521}, "num_reviews": 197, "rating": 4.0, "zipcode": "10022"}, {"cuisine_type": "American Cuisine", "business_id": "Gn7oaWjBoEGHe1_bfsBikg", "name": "Virginia's", "address": "647 E 11th St", "coordinates": {"latitude": 40.72666, "longitude": -73.9773}, "num_reviews": 164, "rating": 4.0, "zipcode": "10009"}, {"cuisine_type": "American Cuisine", "business_id": "1LIptXhtDh58vAA-QPFL4w", "name": "Cask Bar & Kitchen", "address": "167 E 33rd St", "coordinates": {"latitude": 40.745414, "longitude": -73.979004}, "num_reviews": 1325, "rating": 4.0, "zipcode": "10016"}, {"cuisine_type": "American Cuisine", "business_id": "Xcnq-GIw48tMPlUIavpGmA", "name": "The East Pole", "address": "133 E 65th St", "coordinates": {"latitude": 40.7662355, "longitude": -73.9658007}, "num_reviews": 246, "rating": 3.5, "zipcode": "10065"}, {"cuisine_type": "American Cuisine", "business_id": "CwAE-SZzIa8A2AUiF0wZ8w", "name": "Paname Restaurant", "address": "1068 2nd Ave", "coordinates": {"latitude": 40.7587122741301, "longitude": -73.9654768081818}, "num_reviews": 95, "rating": 4.0, "zipcode": "10022"}, {"cuisine_type": "American Cuisine", "business_id": "OxqUWRZFUOz3r6_4bh4mfg", "name": "Cock & Bull", "address": "23 W 45th St", "coordinates": {"latitude": 40.7560908823673, "longitude": -73.9804858350908}, "num_reviews": 525, "rating": 4.0, "zipcode": "10036"}, {"cuisine_type": "American Cuisine", "business_id": "bRPq-Nmct5bOuOtsu8fC7Q", "name": "S'MAC", "address": "197 1st Ave", "coordinates": {"latitude": 40.730212, "longitude": -73.983724}, "num_reviews": 2154, "rating": 3.5, "zipcode": "10003"}, {"cuisine_type": "American Cuisine", "business_id": "UJSugMSGxB4vzBaCvmLthA", "name": "Treehaus Mima", "address": "470 W 42nd St", "coordinates": {"latitude": 40.7591906203981, "longitude": -73.9949657125923}, "num_reviews": 135, "rating": 3.5, "zipcode": "10036"}, {"cuisine_type": "American Cuisine", "business_id": "pDUQF3IgvqZfT31luMgwTA", "name": "CK14  The Crooked Knife", "address": "232 W 14th St", "coordinates": {"latitude": 40.739015, "longitude": -74.001506}, "num_reviews": 513, "rating": 4.0, "zipcode": "10011"}, {"cuisine_type": "American Cuisine", "business_id": "63nYipWuA42RZmESBMUNkQ", "name": "The Bluebell Cafe", "address": "293 3rd Ave", "coordinates": {"latitude": 40.73845, "longitude": -73.98321}, "num_reviews": 597, "rating": 4.0, "zipcode": "10010"}, {"cuisine_type": "American Cuisine", "business_id": "sGqKDtizXj3tg9jnAc9FeQ", "name": "K Rico Steakhouse", "address": "772 9th Ave", "coordinates": {"latitude": 40.76438, "longitude": -73.9880699}, "num_reviews": 562, "rating": 4.5, "zipcode": "10019"}, {"cuisine_type": "American Cuisine", "business_id": "DodCeSN_hkXCJDoJ0uVxKg", "name": "Nix", "address": "72 University Pl", "coordinates": {"latitude": 40.73323, "longitude": -73.99359}, "num_reviews": 512, "rating": 4.0, "zipcode": "10003"}, {"cuisine_type": "American Cuisine", "business_id": "3idAtiEXe_XfTcPoZC_DcQ", "name": "Westville East", "address": "173 Ave A", "coordinates": {"latitude": 40.72847, "longitude": -73.98213}, "num_reviews": 1022, "rating": 4.0, "zipcode": "10009"}, {"cuisine_type": "American Cuisine", "business_id": "1u_vkRFPuT8Aeh7Zk3bKyw", "name": "Galata Mediterranean Cuisine", "address": "212 E 34th St", "coordinates": {"latitude": 40.74531, "longitude": -73.97753}, "num_reviews": 329, "rating": 4.5, "zipcode": "10016"}, {"cuisine_type": "American Cuisine", "business_id": "A-ert0jDRBfku9ogyW_mEg", "name": "Spice Symphony", "address": "150 E 50th St", "coordinates": {"latitude": 40.7558937072754, "longitude": -73.9715347290039}, "num_reviews": 422, "rating": 4.5, "zipcode": "10022"}, {"cuisine_type": "American Cuisine", "business_id": "8tcFpd0dcmfzbLgbTO4tdw", "name": "Sen Sakana", "address": "28 W 44th St", "coordinates": {"latitude": 40.75533, "longitude": -73.9815}, "num_reviews": 256, "rating": 4.0, "zipcode": "10036"}, {"cuisine_type": "American Cuisine", "business_id": "VbFYau70iG_s6UNFwYtGVQ", "name": "Xu's Public House", "address": "15 Union Square W", "coordinates": {"latitude": 40.73589, "longitude": -73.9917}, "num_reviews": 49, "rating": 4.5, "zipcode": "10003"}, {"cuisine_type": "American Cuisine", "business_id": "pCfGgX0WxGASGM4-Yhr2Pw", "name": "Hao Noodle Chelsea", "address": "343 W 14th St", "coordinates": {"latitude": 40.7406999, "longitude": -74.00436}, "num_reviews": 303, "rating": 4.5, "zipcode": "10014"}, {"cuisine_type": "American Cuisine", "business_id": "ihplCj2HKWR7z-bBKf8Nzw", "name": "POST", "address": "42 Ave B", "coordinates": {"latitude": 40.72298, "longitude": -73.98302}, "num_reviews": 235, "rating": 4.5, "zipcode": "10009"}, {"cuisine_type": "American Cuisine", "business_id": "zJcxZQbTSAP3q4Fy-6WAyw", "name": "Shalom Japan", "address": "310 S 4th St", "coordinates": {"latitude": 40.7091679, "longitude": -73.9558028}, "num_reviews": 264, "rating": 4.0, "zipcode": "11211"}, {"cuisine_type": "American Cuisine", "business_id": "xSURTR_UnY3BDpMkezeNfA", "name": "Black Emperor Bar", "address": "197 2nd Ave", "coordinates": {"latitude": 40.73135, "longitude": -73.98593}, "num_reviews": 28, "rating": 4.5, "zipcode": "10003"}, {"cuisine_type": "American Cuisine", "business_id": "IfIyjm4SfORGYPbaAWST3g", "name": "Mexicue", "address": "225 5th Ave", "coordinates": {"latitude": 40.7434728927194, "longitude": -73.9880464381069}, "num_reviews": 424, "rating": 4.0, "zipcode": "10010"}, {"cuisine_type": "American Cuisine", "business_id": "os09iVkYkzIg9G1xEIepiA", "name": "Momofuku Nishi", "address": "232 8th Ave", "coordinates": {"latitude": 40.7443479, "longitude": -73.9988054}, "num_reviews": 567, "rating": 4.0, "zipcode": "10011"}, {"cuisine_type": "American Cuisine", "business_id": "al9HKZ3kCJipAJW4uxzj4A", "name": "Havana Central", "address": "151 W 46th St", "coordinates": {"latitude": 40.75831, "longitude": -73.98416}, "num_reviews": 2180, "rating": 4.0, "zipcode": "10036"}, {"cuisine_type": "American Cuisine", "business_id": "zwOAiVT4pAmpNGXzj-t5MA", "name": "Lilia", "address": "567 Union Ave", "coordinates": {"latitude": 40.71757, "longitude": -73.95236}, "num_reviews": 733, "rating": 4.0, "zipcode": "11211"}, {"cuisine_type": "American Cuisine", "business_id": "X8yEmEDD9ZTkHoIRFqzcRw", "name": "Osamil", "address": "5 West 31st St", "coordinates": {"latitude": 40.74697, "longitude": -73.9864}, "num_reviews": 381, "rating": 4.0, "zipcode": "10001"}, {"cuisine_type": "American Cuisine", "business_id": "FXhSEZfIqjMZh4hR0_8jMQ", "name": "China Xiang \u4e2d\u56fd\u6e58", "address": "360 W 42nd Street", "coordinates": {"latitude": 40.7582902125633, "longitude": -73.9925113993899}, "num_reviews": 429, "rating": 4.0, "zipcode": "10036"}, {"cuisine_type": "American Cuisine", "business_id": "EbX_9tqAJs4gW51gZpOB7g", "name": "Rasa", "address": "25 W 8th St", "coordinates": {"latitude": 40.7327654, "longitude": -73.9975674}, "num_reviews": 672, "rating": 4.0, "zipcode": "10011"}, {"cuisine_type": "American Cuisine", "business_id": "vgh9sc3DK-b9Gomc_QApSQ", "name": "Llamita", "address": "80 Carmine St", "coordinates": {"latitude": 40.7294419, "longitude": -74.00487}, "num_reviews": 63, "rating": 4.5, "zipcode": "10014"}, {"cuisine_type": "American Cuisine", "business_id": "icZcEK39HXuL2q08i4EkkQ", "name": "Bessou", "address": "5 Bleecker St", "coordinates": {"latitude": 40.725502, "longitude": -73.992675}, "num_reviews": 223, "rating": 4.0, "zipcode": "10012"}, {"cuisine_type": "American Cuisine", "business_id": "croh2zWlbPyCQTNS11klcg", "name": "China River \u5ddd\u805a\u9662", "address": "258 W 44th St", "coordinates": {"latitude": 40.7581711239604, "longitude": -73.9883149042726}, "num_reviews": 162, "rating": 4.0, "zipcode": "10036"}, {"cuisine_type": "American Cuisine", "business_id": "WHXgDm3kcU-aONfjR8tX0A", "name": "O Ya", "address": "120 E 28th St", "coordinates": {"latitude": 40.74283, "longitude": -73.98319}, "num_reviews": 238, "rating": 4.5, "zipcode": "10016"}, {"cuisine_type": "American Cuisine", "business_id": "8fn5gUBncPJifhsEKmAejQ", "name": "The Fat Radish", "address": "17 Orchard St", "coordinates": {"latitude": 40.715293924183, "longitude": -73.9917185036817}, "num_reviews": 540, "rating": 3.5, "zipcode": "10002"}, {"cuisine_type": "American Cuisine", "business_id": "FiRB9Ek3Xo9JHwXgBYITYg", "name": "La Sir\u00e8ne-Soho", "address": "558 Broome St", "coordinates": {"latitude": 40.7243642217227, "longitude": -74.005708694458}, "num_reviews": 1583, "rating": 4.5, "zipcode": "10013"}, {"cuisine_type": "American Cuisine", "business_id": "9fydXI0fj2s-EmlF7vm8Og", "name": "Clay", "address": "553 Manhattan Ave", "coordinates": {"latitude": 40.8094002234406, "longitude": -73.9536950700793}, "num_reviews": 135, "rating": 4.5, "zipcode": "10027"}, {"cuisine_type": "American Cuisine", "business_id": "AUifp6IDKzmorCM6vY2fug", "name": "Pepe Giallo", "address": "195 10th Ave", "coordinates": {"latitude": 40.7468940064083, "longitude": -74.0049896784992}, "num_reviews": 616, "rating": 4.0, "zipcode": "10011"}, {"cuisine_type": "American Cuisine", "business_id": "qY1o1MhoRyN84RRhUJtvpQ", "name": "Her Name Is Han", "address": "17 E 31st St", "coordinates": {"latitude": 40.74626, "longitude": -73.98473}, "num_reviews": 1123, "rating": 4.0, "zipcode": "10016"}, {"cuisine_type": "American Cuisine", "business_id": "zo4JHfD2nWPUiqgsgDOaHQ", "name": "Rao's", "address": "455 E 114th St", "coordinates": {"latitude": 40.79392, "longitude": -73.93427}, "num_reviews": 144, "rating": 4.5, "zipcode": "10029"}, {"cuisine_type": "American Cuisine", "business_id": "9_0R5ZUXM_znsT1Hwa1qKA", "name": "The Writing Room", "address": "1703 2nd Ave", "coordinates": {"latitude": 40.77946, "longitude": -73.95094}, "num_reviews": 467, "rating": 3.5, "zipcode": "10128"}, {"cuisine_type": "American Cuisine", "business_id": "u9xVzV1OZC5pwtUgaHLM-A", "name": "El Kallejon", "address": "209 E 117th St", "coordinates": {"latitude": 40.798538, "longitude": -73.938805}, "num_reviews": 274, "rating": 4.5, "zipcode": "10035"}, {"cuisine_type": "American Cuisine", "business_id": "bxju4seaE8hE-HpLrBomgw", "name": "Eats", "address": "1055 Lexington Ave", "coordinates": {"latitude": 40.7722, "longitude": -73.96065}, "num_reviews": 416, "rating": 3.5, "zipcode": "10021"}, {"cuisine_type": "American Cuisine", "business_id": "16ZnHpuaaBt92XWeJHCC5A", "name": "Olio e Pi\u00fa", "address": "3 Greenwich Ave", "coordinates": {"latitude": 40.733826, "longitude": -73.999852}, "num_reviews": 1971, "rating": 4.0, "zipcode": "10014"}, {"cuisine_type": "American Cuisine", "business_id": "7DnZWIn1Dcsvq-_pIXXFZQ", "name": "Hortus NYC", "address": "271 5th Ave", "coordinates": {"latitude": 40.74545, "longitude": -73.98652}, "num_reviews": 141, "rating": 4.5, "zipcode": "10016"}, {"cuisine_type": "American Cuisine", "business_id": "56qlj1cYlqNzmG0xllGg-w", "name": "Westville Dumbo", "address": "81 Washington St", "coordinates": {"latitude": 40.7017969340086, "longitude": -73.9896315336227}, "num_reviews": 257, "rating": 4.0, "zipcode": "11201"}, {"cuisine_type": "American Cuisine", "business_id": "kvIrv1akLm08kxd44ciicA", "name": "Blenheim", "address": "283 W 12th St", "coordinates": {"latitude": 40.737716, "longitude": -74.004005}, "num_reviews": 219, "rating": 3.5, "zipcode": "10014"}, {"cuisine_type": "American Cuisine", "business_id": "owYYuyLvlsdjLz68c3SSfg", "name": "Taboonette", "address": "30 E 13th St", "coordinates": {"latitude": 40.7347009, "longitude": -73.9927323}, "num_reviews": 826, "rating": 4.0, "zipcode": "10003"}, {"cuisine_type": "American Cuisine", "business_id": "KIIYvTOc0Uv90aUHEGvoSg", "name": "La Grenouille", "address": "3 E 52nd St", "coordinates": {"latitude": 40.75972, "longitude": -73.97555}, "num_reviews": 422, "rating": 4.0, "zipcode": "10022"}, {"cuisine_type": "American Cuisine", "business_id": "W0sXHSSpkiMEDJiBmSLNYQ", "name": "Trestle", "address": "34-02 Broadway", "coordinates": {"latitude": 40.7606154, "longitude": -73.9229562}, "num_reviews": 283, "rating": 4.0, "zipcode": "11106"}, {"cuisine_type": "American Cuisine", "business_id": "0ROpM3UcZhprN6dhwK2Hsw", "name": "Joe & Pat's Pizzeria", "address": "168 1st Ave", "coordinates": {"latitude": 40.72892, "longitude": -73.98411}, "num_reviews": 138, "rating": 4.0, "zipcode": "10009"}, {"cuisine_type": "American Cuisine", "business_id": "3Q4FMHLSTM8sATaEHeZ6Tg", "name": "Blanca", "address": "261 Moore St", "coordinates": {"latitude": 40.7050708681994, "longitude": -73.933581}, "num_reviews": 165, "rating": 4.0, "zipcode": "11206"}, {"cuisine_type": "American Cuisine", "business_id": "ryvBsB9FrBBZDak87iGS1w", "name": "The Seafire Grill", "address": "158 E 48th St", "coordinates": {"latitude": 40.7547012104496, "longitude": -73.972255513072}, "num_reviews": 1195, "rating": 4.5, "zipcode": "10017"}, {"cuisine_type": "American Cuisine", "business_id": "PJeuLlvja4ZKv_tHq_pE1A", "name": "Heidelberg Restaurant", "address": "1648 2nd Ave", "coordinates": {"latitude": 40.77742, "longitude": -73.95172}, "num_reviews": 668, "rating": 4.0, "zipcode": "10028"}, {"cuisine_type": "American Cuisine", "business_id": "xbrQ2dHuQoFJmNxAuOky4A", "name": "Vic's", "address": "31 Great Jones St", "coordinates": {"latitude": 40.72693, "longitude": -73.99319}, "num_reviews": 435, "rating": 4.0, "zipcode": "10012"}, {"cuisine_type": "American Cuisine", "business_id": "megxpLA5KciBJbW-jNm2RQ", "name": "Arno Ristorante", "address": "141 W 38th St", "coordinates": {"latitude": 40.7534599, "longitude": -73.98842}, "num_reviews": 205, "rating": 3.5, "zipcode": "10018"}, {"cuisine_type": "American Cuisine", "business_id": "9BzRiWO6PSdR-l3dzCm3VA", "name": "Buceo 95", "address": "201 W 95th St", "coordinates": {"latitude": 40.793571, "longitude": -73.971058}, "num_reviews": 426, "rating": 4.0, "zipcode": "10025"}, {"cuisine_type": "American Cuisine", "business_id": "egQkevpRi3g-iKrYIlBpGQ", "name": "Cocotte", "address": "110 Thompson St", "coordinates": {"latitude": 40.72575, "longitude": -74.00178}, "num_reviews": 316, "rating": 4.0, "zipcode": "10012"}, {"cuisine_type": "American Cuisine", "business_id": "9o4y3IqpFDaj8FddJ6oi2A", "name": "Clement", "address": "700 5th Ave", "coordinates": {"latitude": 40.7616602403771, "longitude": -73.9752098617798}, "num_reviews": 137, "rating": 4.0, "zipcode": "10019"}, {"cuisine_type": "American Cuisine", "business_id": "l7Z0p-PkSwIDPLPY1TRl8A", "name": "Emilio's Ballato", "address": "55 E Houston St", "coordinates": {"latitude": 40.7244923, "longitude": -73.9944022}, "num_reviews": 312, "rating": 4.0, "zipcode": "10012"}, {"cuisine_type": "American Cuisine", "business_id": "vRrVSB-LegwUwIxpkeRVtQ", "name": "Le Bernardin", "address": "155 W 51st St", "coordinates": {"latitude": 40.761557, "longitude": -73.981763}, "num_reviews": 2461, "rating": 4.5, "zipcode": "10019"}, {"cuisine_type": "American Cuisine", "business_id": "GticI2JB8Iw2ktRfLv6aRQ", "name": "Momofuku Ko", "address": "8 Extra Pl", "coordinates": {"latitude": 40.724776, "longitude": -73.991682}, "num_reviews": 292, "rating": 4.5, "zipcode": "10003"}, {"cuisine_type": "American Cuisine", "business_id": "txSykTj5nbwmpiVNoK_Dyg", "name": "Blue Ribbon Brasserie - SoHo", "address": "97 Sullivan St", "coordinates": {"latitude": 40.725456, "longitude": -74.003027}, "num_reviews": 917, "rating": 4.5, "zipcode": "10012"}, {"cuisine_type": "American Cuisine", "business_id": "uboO7T3XSnl8iq0uQWhMXA", "name": "Caf\u00e9 Altro Paradiso", "address": "234 Spring St", "coordinates": {"latitude": 40.72549, "longitude": -74.00489}, "num_reviews": 139, "rating": 3.5, "zipcode": "10013"}, {"cuisine_type": "American Cuisine", "business_id": "qOomR3AwClOGpV1HdqOTFg", "name": "Les Enfants de Boheme", "address": "177 Henry St", "coordinates": {"latitude": 40.7136187, "longitude": -73.9888503}, "num_reviews": 223, "rating": 4.5, "zipcode": "10002"}, {"cuisine_type": "American Cuisine", "business_id": "c1kKAH9XMPNeaBhvnIP0FQ", "name": "Trinity Place", "address": "115 Broadway", "coordinates": {"latitude": 40.708865, "longitude": -74.01117}, "num_reviews": 359, "rating": 4.0, "zipcode": "10006"}, {"cuisine_type": "American Cuisine", "business_id": "Sj3JYCbaEFrAqUzRrenQbg", "name": "Jora Restaurant & Bar", "address": "47-46 11th St", "coordinates": {"latitude": 40.7438054, "longitude": -73.9515007}, "num_reviews": 561, "rating": 4.5, "zipcode": "11101"}, {"cuisine_type": "American Cuisine", "business_id": "-2aMphgYYnoxncuZ7xI3Gw", "name": "Bierhaus NYC", "address": "712 3rd Ave", "coordinates": {"latitude": 40.75261, "longitude": -73.97342}, "num_reviews": 683, "rating": 3.5, "zipcode": "10017"}, {"cuisine_type": "American Cuisine", "business_id": "ZUrGqOG2cetGI-KKXk3c2g", "name": "Chazz Palminteri Italian Restaurant", "address": "30 West 46th St", "coordinates": {"latitude": 40.756473, "longitude": -73.980563}, "num_reviews": 229, "rating": 4.0, "zipcode": "10036"}, {"cuisine_type": "American Cuisine", "business_id": "pQuZDnefX038xurT1BhDXA", "name": "Keens Steakhouse", "address": "72 W 36th St", "coordinates": {"latitude": 40.75071, "longitude": -73.98652}, "num_reviews": 2460, "rating": 4.0, "zipcode": "10018"}, {"cuisine_type": "American Cuisine", "business_id": "m0HUo-Vzs3Oxb9MqCu4V7Q", "name": "Balade Your Way", "address": "8 E 41st St", "coordinates": {"latitude": 40.75245, "longitude": -73.98081}, "num_reviews": 18, "rating": 4.5, "zipcode": "10017"}, {"cuisine_type": "American Cuisine", "business_id": "BOz0qTUMtAfljd3Vn1rerQ", "name": "Pado", "address": "199 2nd Ave", "coordinates": {"latitude": 40.7314, "longitude": -73.98589}, "num_reviews": 228, "rating": 4.5, "zipcode": "10003"}, {"cuisine_type": "American Cuisine", "business_id": "ZVa3-O6LMxZXSpKG0J1h-w", "name": "Piccolo Angolo Restaurant", "address": "621 Hudson St", "coordinates": {"latitude": 40.7378601855952, "longitude": -74.0058052539825}, "num_reviews": 538, "rating": 4.0, "zipcode": "10014"}, {"cuisine_type": "American Cuisine", "business_id": "3NbhYebjZPjLTWZZyRuhsw", "name": "The Winslow", "address": "243 E 14th St", "coordinates": {"latitude": 40.7327766418457, "longitude": -73.9852142333984}, "num_reviews": 507, "rating": 4.5, "zipcode": "10003"}, {"cuisine_type": "American Cuisine", "business_id": "8FvdmDeaE74iYtslwNPITg", "name": "Lot 2", "address": "687 6th Ave", "coordinates": {"latitude": 40.6605911254883, "longitude": -73.9903106689453}, "num_reviews": 256, "rating": 4.5, "zipcode": "11215"}, {"cuisine_type": "American Cuisine", "business_id": "4hukJNoy9F2ILYJZWl4Xlw", "name": "Set L.E.S", "address": "127 Ludlow St", "coordinates": {"latitude": 40.7198495417833, "longitude": -73.9885318279266}, "num_reviews": 416, "rating": 4.0, "zipcode": "10002"}, {"cuisine_type": "American Cuisine", "business_id": "bW3mY-voyav37nU0uaLmNQ", "name": "Dante", "address": "79-81 Macdougal St", "coordinates": {"latitude": 40.72879, "longitude": -74.00165}, "num_reviews": 289, "rating": 4.0, "zipcode": "10012"}, {"cuisine_type": "American Cuisine", "business_id": "YtXl15Nv7TZvV3yIqbZc8A", "name": "Burger & Lobster", "address": "132 W 43rd St", "coordinates": {"latitude": 40.75596, "longitude": -73.98532}, "num_reviews": 882, "rating": 4.0, "zipcode": "10036"}, {"cuisine_type": "American Cuisine", "business_id": "pwzLpR9ys1NkE3ppjT88MQ", "name": "Pietro Nolita", "address": "174 Elizabeth St", "coordinates": {"latitude": 40.7210205244336, "longitude": -73.994662}, "num_reviews": 439, "rating": 3.0, "zipcode": "10012"}, {"cuisine_type": "American Cuisine", "business_id": "ZgIfySJ3cnB1svoyJAiCzg", "name": "Buenos Aires", "address": "513 E 6th St", "coordinates": {"latitude": 40.7253150939941, "longitude": -73.983039855957}, "num_reviews": 521, "rating": 4.0, "zipcode": "10009"}, {"cuisine_type": "American Cuisine", "business_id": "pk89jzL1RsE9U0thf_z6tw", "name": "Locanda Verde", "address": "377 Greenwich St", "coordinates": {"latitude": 40.7198601300801, "longitude": -74.010039072422}, "num_reviews": 1577, "rating": 4.0, "zipcode": "10013"}, {"cuisine_type": "American Cuisine", "business_id": "uYLIo8FCr9Ug5SFORDdsPA", "name": "The Burgary", "address": "67 Clinton St", "coordinates": {"latitude": 40.7193370804105, "longitude": -73.9850228946549}, "num_reviews": 236, "rating": 4.5, "zipcode": "10002"}, {"cuisine_type": "American Cuisine", "business_id": "qBGKigOGn_flCx1apxPzlA", "name": "Piccola Cucina Osteria", "address": "196 Spring St", "coordinates": {"latitude": 40.72506, "longitude": -74.00322}, "num_reviews": 478, "rating": 4.5, "zipcode": "10012"}, {"cuisine_type": "American Cuisine", "business_id": "iPc-zPgcpgeSo76xl5Jbpw", "name": "The Maze", "address": "32 W 32nd St", "coordinates": {"latitude": 40.747846, "longitude": -73.9872499}, "num_reviews": 401, "rating": 4.0, "zipcode": "10001"}, {"cuisine_type": "American Cuisine", "business_id": "50fj-g0MspUNye6eWEDjNw", "name": "Taberna 97", "address": "97 St Marks Pl", "coordinates": {"latitude": 40.7275018841028, "longitude": -73.9849530905485}, "num_reviews": 57, "rating": 4.0, "zipcode": "10009"}, {"cuisine_type": "American Cuisine", "business_id": "FJepPR5CYRggxRwAjlqg6A", "name": "Bowery Road", "address": "132 4th Ave", "coordinates": {"latitude": 40.7333427, "longitude": -73.9901924}, "num_reviews": 195, "rating": 4.0, "zipcode": "10003"}, {"cuisine_type": "American Cuisine", "business_id": "5XQgZQF-5N94bkQ2d_PJIQ", "name": "Pascalou", "address": "1308 Madison Ave", "coordinates": {"latitude": 40.78521, "longitude": -73.95595}, "num_reviews": 203, "rating": 4.0, "zipcode": "10128"}, {"cuisine_type": "American Cuisine", "business_id": "jc7lVTvmYMIK5RNpENtS6w", "name": "Szechuan Mountain House", "address": "23 St Marks Pl", "coordinates": {"latitude": 40.72911, "longitude": -73.98858}, "num_reviews": 292, "rating": 4.0, "zipcode": "10003"}, {"cuisine_type": "American Cuisine", "business_id": "fp8X7ERa-0Ot_QD36I4ghw", "name": "Vino Levantino", "address": "210 W 94th St", "coordinates": {"latitude": 40.7929478710728, "longitude": -73.9720784291819}, "num_reviews": 226, "rating": 4.0, "zipcode": "10025"}, {"cuisine_type": "American Cuisine", "business_id": "lcI9kOcRqxxMhM4b5pHqsg", "name": "Dawa's", "address": "51-18 Skillman Ave", "coordinates": {"latitude": 40.7456869, "longitude": -73.9126859}, "num_reviews": 217, "rating": 4.5, "zipcode": "11377"}, {"cuisine_type": "American Cuisine", "business_id": "qMHzIYzoHYe55I7L65iEQw", "name": "Foragers Table", "address": "233 8th Ave", "coordinates": {"latitude": 40.744541, "longitude": -73.9990926}, "num_reviews": 532, "rating": 4.0, "zipcode": "10011"}, {"cuisine_type": "American Cuisine", "business_id": "FeSynfcDT4qB2kDixHUQCA", "name": "Danji", "address": "346 W 52nd St", "coordinates": {"latitude": 40.764, "longitude": -73.98686}, "num_reviews": 984, "rating": 4.0, "zipcode": "10019"}, {"cuisine_type": "American Cuisine", "business_id": "yo5eVHQeB3T95Vo04X62VA", "name": "American Cut Steakhouse Midtown", "address": "109 E 56th St", "coordinates": {"latitude": 40.76081, "longitude": -73.97034}, "num_reviews": 206, "rating": 3.5, "zipcode": "10022"}, {"cuisine_type": "American Cuisine", "business_id": "EVZeqLPpfXrygmgamjD5_w", "name": "Takeshi Sushi", "address": "28 Grand St", "coordinates": {"latitude": 40.72294, "longitude": -74.00464}, "num_reviews": 65, "rating": 4.5, "zipcode": "10013"}, {"cuisine_type": "American Cuisine", "business_id": "4Objcs7HXSGuzpb0SOa-Jw", "name": "Blue Hill", "address": "75 Washington Pl", "coordinates": {"latitude": 40.7320640251595, "longitude": -73.9996931018524}, "num_reviews": 985, "rating": 4.5, "zipcode": "10011"}, {"cuisine_type": "American Cuisine", "business_id": "ihzI-4yGesoQuAoIocao8g", "name": "Tacuba Hell's Kitchen", "address": "802 9th Ave", "coordinates": {"latitude": 40.76545, "longitude": -73.98729}, "num_reviews": 626, "rating": 4.0, "zipcode": "10019"}, {"cuisine_type": "American Cuisine", "business_id": "6Ct7OeTRn4caY9g0swFBsw", "name": "La Contenta", "address": "102 Norfolk St", "coordinates": {"latitude": 40.71873, "longitude": -73.98691}, "num_reviews": 711, "rating": 4.5, "zipcode": "10002"}, {"cuisine_type": "American Cuisine", "business_id": "jjLcqGI11ThxAhcftEh1Aw", "name": "Fraunces Tavern", "address": "54 Pearl St", "coordinates": {"latitude": 40.70344, "longitude": -74.01135}, "num_reviews": 838, "rating": 3.5, "zipcode": "10004"}, {"cuisine_type": "American Cuisine", "business_id": "0gTHz_iR8yHuhtIt-0-20g", "name": "Zum Schneider", "address": "107 Ave C", "coordinates": {"latitude": 40.72421, "longitude": -73.978862}, "num_reviews": 576, "rating": 4.0, "zipcode": "10009"}, {"cuisine_type": "American Cuisine", "business_id": "N66LlG3W6Tw5LhUtAE7h1w", "name": "Cafe Un Deux Trois", "address": "123 W 44th St", "coordinates": {"latitude": 40.75667, "longitude": -73.98414}, "num_reviews": 572, "rating": 3.5, "zipcode": "10036"}, {"cuisine_type": "American Cuisine", "business_id": "tJHmKLn1lWpaPuZTZrDgsA", "name": "Havana NY", "address": "58 W 38th St", "coordinates": {"latitude": 40.75189, "longitude": -73.98517}, "num_reviews": 251, "rating": 4.0, "zipcode": "10018"}, {"cuisine_type": "American Cuisine", "business_id": "LpVbI-E9C-CSp7WhU5h2Iw", "name": "Fishmarket Restaurant", "address": "111 South St", "coordinates": {"latitude": 40.70717, "longitude": -74.00192}, "num_reviews": 536, "rating": 4.5, "zipcode": "10038"}, {"cuisine_type": "American Cuisine", "business_id": "m-JwITbcZg8kDIHG7375Jw", "name": "Andy's Restaurant", "address": "2262 3rd Ave", "coordinates": {"latitude": 40.80262, "longitude": -73.93691}, "num_reviews": 24, "rating": 4.0, "zipcode": "10035"}, {"cuisine_type": "American Cuisine", "business_id": "BxNs9d8rEW3Tls-nVdmIgA", "name": "Reichenbach Hall", "address": "5 W 37th St", "coordinates": {"latitude": 40.7508, "longitude": -73.98401}, "num_reviews": 721, "rating": 4.0, "zipcode": "10018"}, {"cuisine_type": "American Cuisine", "business_id": "lXGCo-K7eftxRT_6E59-Iw", "name": "Union Square Cafe", "address": "101 E 19th St", "coordinates": {"latitude": 40.73775, "longitude": -73.987874}, "num_reviews": 1185, "rating": 4.0, "zipcode": "10003"}, {"cuisine_type": "American Cuisine", "business_id": "CesS-E8Q3ztX6VnkXO6wBg", "name": "Chinese Tuxedo", "address": "5 Doyers St", "coordinates": {"latitude": 40.71433, "longitude": -73.99804}, "num_reviews": 247, "rating": 3.5, "zipcode": "10013"}, {"cuisine_type": "American Cuisine", "business_id": "NqYET0OyJKGfm9dJG8iDcg", "name": "Piccola Cucina Enoteca", "address": "184 Prince St", "coordinates": {"latitude": 40.726284, "longitude": -74.002151}, "num_reviews": 270, "rating": 4.0, "zipcode": "10012"}, {"cuisine_type": "American Cuisine", "business_id": "H1jops1lmuhrq9lP7lEGJQ", "name": "Flor De Mayo", "address": "484 Amsterdam Ave", "coordinates": {"latitude": 40.78609, "longitude": -73.97658}, "num_reviews": 1152, "rating": 4.0, "zipcode": "10024"}, {"cuisine_type": "American Cuisine", "business_id": "kr_Wu5m0P-AEghraNqXeTA", "name": "Ikinari Steak East Village", "address": "90 E 10th St", "coordinates": {"latitude": 40.73088, "longitude": -73.98968}, "num_reviews": 750, "rating": 4.0, "zipcode": "10003"}, {"cuisine_type": "American Cuisine", "business_id": "lNGdiIQwGOGsXAKvRMVC0w", "name": "Big Daddy's", "address": "239 Park Ave S", "coordinates": {"latitude": 40.7379388, "longitude": -73.9878026}, "num_reviews": 984, "rating": 3.5, "zipcode": "10003"}, {"cuisine_type": "American Cuisine", "business_id": "Rgm8BwcoqfIVSl2QSEOhbQ", "name": "Craft", "address": "43 E 19th St", "coordinates": {"latitude": 40.73818, "longitude": -73.98866}, "num_reviews": 996, "rating": 4.0, "zipcode": "10003"}, {"cuisine_type": "American Cuisine", "business_id": "f-sL-VgQzte0StcqI3KkJw", "name": "West Bank Cafe", "address": "407 W 42nd St", "coordinates": {"latitude": 40.7586255669594, "longitude": -73.992970213294}, "num_reviews": 247, "rating": 4.0, "zipcode": "10036"}, {"cuisine_type": "American Cuisine", "business_id": "kacoHTzwYA7QZM3F2dw4kA", "name": "Spanish Diner at Mercado Little Spain", "address": "347 10th Ave", "coordinates": {"latitude": 40.7522295, "longitude": -74.0010816}, "num_reviews": 66, "rating": 3.5, "zipcode": "10001"}, {"cuisine_type": "American Cuisine", "business_id": "3gqKLANaXNsHZnPDjKrcTg", "name": "Win Son", "address": "159 Graham Ave", "coordinates": {"latitude": 40.70747, "longitude": -73.94339}, "num_reviews": 415, "rating": 4.5, "zipcode": "11206"}, {"cuisine_type": "American Cuisine", "business_id": "GRhA1hH1edG48tj2T5I6CA", "name": "Crimson & Rye", "address": "198 E 54th St", "coordinates": {"latitude": 40.7580738959145, "longitude": -73.9687237968059}, "num_reviews": 138, "rating": 4.0, "zipcode": "10022"}, {"cuisine_type": "American Cuisine", "business_id": "Xq9uOJz0U1iugBqRoQt1hA", "name": "T\u00edr na N\u00f3g", "address": "315 W 39th St", "coordinates": {"latitude": 40.75585, "longitude": -73.99214}, "num_reviews": 377, "rating": 4.0, "zipcode": "10018"}, {"cuisine_type": "American Cuisine", "business_id": "SKoMUaQewpMdj1Mg8QvBNw", "name": "Nobu Downtown", "address": "195 Broadway", "coordinates": {"latitude": 40.711203, "longitude": -74.008879}, "num_reviews": 355, "rating": 3.5, "zipcode": "10007"}, {"cuisine_type": "American Cuisine", "business_id": "rp8S7scxOkVVeG7dNneMGQ", "name": "L'Artusi", "address": "228 W 10th St", "coordinates": {"latitude": 40.733714, "longitude": -74.005068}, "num_reviews": 1761, "rating": 4.5, "zipcode": "10014"}, {"cuisine_type": "American Cuisine", "business_id": "q11TljTQd33XCWlVoPyRqg", "name": "The Osprey", "address": "60 Furman St", "coordinates": {"latitude": 40.702241, "longitude": -73.995539}, "num_reviews": 174, "rating": 4.0, "zipcode": "11201"}, {"cuisine_type": "American Cuisine", "business_id": "FkA9aoMhWO4XKFMTuTnl4Q", "name": "Atla", "address": "372 Lafayette St", "coordinates": {"latitude": 40.7271874, "longitude": -73.9938924}, "num_reviews": 262, "rating": 3.5, "zipcode": "10012"}, {"cuisine_type": "American Cuisine", "business_id": "1_S2RxVWOidWcgbU2tBQBQ", "name": "Maharlika", "address": "111 1st Ave", "coordinates": {"latitude": 40.72695, "longitude": -73.98611}, "num_reviews": 1484, "rating": 4.0, "zipcode": "10003"}, {"cuisine_type": "American Cuisine", "business_id": "csVEpHy5KJoFvM1qp5XwLQ", "name": "Le Parisien", "address": "163 East 33rd St", "coordinates": {"latitude": 40.7454079308793, "longitude": -73.9791478306885}, "num_reviews": 931, "rating": 4.0, "zipcode": "10016"}, {"cuisine_type": "American Cuisine", "business_id": "bEXTA_Gwo2oVg4gnFd9fNA", "name": "Ai Fiori", "address": "400 5th Ave", "coordinates": {"latitude": 40.7500752, "longitude": -73.9837835}, "num_reviews": 1223, "rating": 4.0, "zipcode": "10018"}, {"cuisine_type": "American Cuisine", "business_id": "kH5RMIaFmd-bekCIhOcqDw", "name": "Landmark Tavern", "address": "626 11th Ave", "coordinates": {"latitude": 40.763156, "longitude": -73.996253}, "num_reviews": 278, "rating": 4.0, "zipcode": "10036"}, {"cuisine_type": "American Cuisine", "business_id": "5OfCQDtwqKiYAcsi-NABjQ", "name": "Chumley's", "address": "86 Bedford St", "coordinates": {"latitude": 40.73209, "longitude": -74.00505}, "num_reviews": 186, "rating": 3.5, "zipcode": "10014"}, {"cuisine_type": "American Cuisine", "business_id": "6G0urbBDz_CnYnGXApgUcw", "name": "Boutros", "address": "185 Atlantic Ave", "coordinates": {"latitude": 40.6901481293837, "longitude": -73.9935445412993}, "num_reviews": 110, "rating": 4.5, "zipcode": "11201"}, {"cuisine_type": "American Cuisine", "business_id": "CAXzWJyV2UzYMAImM_YkWA", "name": "The Grill", "address": "99 E 52nd St", "coordinates": {"latitude": 40.7586374, "longitude": -73.9732412}, "num_reviews": 171, "rating": 4.0, "zipcode": "10022"}, {"cuisine_type": "American Cuisine", "business_id": "tXZOJhUUknjTRRo9j4ckZg", "name": "Farida Central Asian Cuisine & Grill", "address": "498 9th Ave", "coordinates": {"latitude": 40.75568, "longitude": -73.99441}, "num_reviews": 225, "rating": 4.5, "zipcode": "10018"}, {"cuisine_type": "American Cuisine", "business_id": "ySIIdmS4oh-QL2dny7GscA", "name": "Riko Peruvian Cuisine", "address": "409 8th Ave", "coordinates": {"latitude": 40.750076, "longitude": -73.995422}, "num_reviews": 670, "rating": 4.0, "zipcode": "10001"}, {"cuisine_type": "American Cuisine", "business_id": "qH8PVeddtVs9cKN2pwgdkQ", "name": "Hwa Yuan", "address": "42 E Broadway", "coordinates": {"latitude": 40.7137, "longitude": -73.99598}, "num_reviews": 215, "rating": 4.0, "zipcode": "10002"}, {"cuisine_type": "American Cuisine", "business_id": "oRCbrbLqvOcBuWPzSjOllQ", "name": "Alameda", "address": "195 Franklin St", "coordinates": {"latitude": 40.733494, "longitude": -73.958484}, "num_reviews": 134, "rating": 4.0, "zipcode": "11222"}, {"cuisine_type": "American Cuisine", "business_id": "unjqnjSjpdGyP2Gqg0qJVA", "name": "marcellino tratoria & pizzeria", "address": "178 Mulberry St", "coordinates": {"latitude": 40.72066, "longitude": -73.99666}, "num_reviews": 38, "rating": 4.0, "zipcode": "10012"}, {"cuisine_type": "American Cuisine", "business_id": "CO3lm5309asRY7XG5eXNgg", "name": "Rahi", "address": "60 Greenwich Ave", "coordinates": {"latitude": 40.7360271, "longitude": -74.0005436}, "num_reviews": 404, "rating": 4.5, "zipcode": "10011"}, {"cuisine_type": "American Cuisine", "business_id": "Me4TxTbPPQZQopW1wOGx5g", "name": "Jack's Wife Freda", "address": "224 Lafayette St", "coordinates": {"latitude": 40.72213, "longitude": -73.99756}, "num_reviews": 1830, "rating": 4.0, "zipcode": "10012"}, {"cuisine_type": "American Cuisine", "business_id": "4KzqwQus39gXgrwrDXAjWA", "name": "El\u00e9a", "address": "217 W 85th St", "coordinates": {"latitude": 40.78754, "longitude": -73.9765199}, "num_reviews": 71, "rating": 4.0, "zipcode": "10024"}, {"cuisine_type": "American Cuisine", "business_id": "V3USzFEGhuoXez4G2Rk11A", "name": "Tavola", "address": "488 9th Ave", "coordinates": {"latitude": 40.755403, "longitude": -73.994516}, "num_reviews": 892, "rating": 4.0, "zipcode": "10018"}, {"cuisine_type": "American Cuisine", "business_id": "MphfKkYFEe0BDQ6hZ0A5fA", "name": "Gelso & Grand", "address": "186 Grand St", "coordinates": {"latitude": 40.7194089547259, "longitude": -73.9973777877722}, "num_reviews": 840, "rating": 4.5, "zipcode": "10013"}, {"cuisine_type": "American Cuisine", "business_id": "gtXP0CmOnBbgfnff7VXa7A", "name": "Pastis", "address": "52 Gansevoort St", "coordinates": {"latitude": 40.73928, "longitude": -74.00695}, "num_reviews": 86, "rating": 4.0, "zipcode": "10014"}, {"cuisine_type": "American Cuisine", "business_id": "XvcRtA3pD6gpICLsdsQVbA", "name": "David Burke Tavern", "address": "135 E 62nd St", "coordinates": {"latitude": 40.76436, "longitude": -73.96714}, "num_reviews": 170, "rating": 4.0, "zipcode": "10065"}, {"cuisine_type": "American Cuisine", "business_id": "6GwOwhHPW8YCSfaOtM-55Q", "name": "Vandal", "address": "199 Bowery", "coordinates": {"latitude": 40.72104, "longitude": -73.99326}, "num_reviews": 1382, "rating": 3.5, "zipcode": "10002"}, {"cuisine_type": "American Cuisine", "business_id": "ZQ-dG0tuqniCmfJ2mptRpQ", "name": "Blue Ribbon Federal Grill", "address": "84 William St", "coordinates": {"latitude": 40.70803, "longitude": -74.00785}, "num_reviews": 83, "rating": 4.0, "zipcode": "10038"}, {"cuisine_type": "American Cuisine", "business_id": "4rWJGwb3rjDoZHA0AECa5A", "name": "Melba's", "address": "300 W 114th St", "coordinates": {"latitude": 40.8031468838453, "longitude": -73.9565069228411}, "num_reviews": 998, "rating": 4.0, "zipcode": "10026"}, {"cuisine_type": "American Cuisine", "business_id": "Mhu-5t9bi1V0tUgf-LgE3g", "name": "Haven Rooftop", "address": "132 W 47th St", "coordinates": {"latitude": 40.75851, "longitude": -73.98322}, "num_reviews": 718, "rating": 3.0, "zipcode": "10036"}, {"cuisine_type": "American Cuisine", "business_id": "UNX40pcYuNtbAUFE84dgFw", "name": "Jams", "address": "1414 6th Ave", "coordinates": {"latitude": 40.764741, "longitude": -73.9765169803648}, "num_reviews": 297, "rating": 3.5, "zipcode": "10019"}, {"cuisine_type": "American Cuisine", "business_id": "8fr5FYU1ip0phERt1mrekg", "name": "Bohemian Restaurant", "address": "57 Great Jones St", "coordinates": {"latitude": 40.72639, "longitude": -73.99236}, "num_reviews": 739, "rating": 4.5, "zipcode": "10012"}, {"cuisine_type": "American Cuisine", "business_id": "nxTEuWKzkK1tCF4LrhFSUQ", "name": "Pig and Khao", "address": "68 Clinton St", "coordinates": {"latitude": 40.71926, "longitude": -73.98475}, "num_reviews": 1554, "rating": 4.0, "zipcode": "10002"}, {"cuisine_type": "American Cuisine", "business_id": "_QxcsvPsYnOgPhiK6gzCfg", "name": "SHOJI at 69 Leonard St", "address": "69 Leonard St", "coordinates": {"latitude": 40.71772, "longitude": -74.00538}, "num_reviews": 46, "rating": 4.0, "zipcode": "10013"}, {"cuisine_type": "American Cuisine", "business_id": "OCTiJwvjoK81WoDwsTkFvA", "name": "Paesano of Mulberry Street", "address": "136 Mulberry St", "coordinates": {"latitude": 40.718554, "longitude": -73.997447}, "num_reviews": 793, "rating": 4.0, "zipcode": "10013"}, {"cuisine_type": "American Cuisine", "business_id": "YFvF4r2D-wJOgJAOvanaZQ", "name": "Gnoccheria by Luzzo's", "address": "234 E 4th St", "coordinates": {"latitude": 40.723315, "longitude": -73.983139}, "num_reviews": 348, "rating": 4.0, "zipcode": "10009"}, {"cuisine_type": "American Cuisine", "business_id": "nsAU6F2vmdnphmfIa_RuWg", "name": "Mable's Smokehouse & Banquet Hall", "address": "44 Berry St", "coordinates": {"latitude": 40.7211890204726, "longitude": -73.9570004492998}, "num_reviews": 815, "rating": 4.0, "zipcode": "11249"},